bbl,address,building_area_sqft,year_built,year_alter1,year_alter2,last_known_alteration,num_floors,rentable_sqft,avg_rentable_sqft_per_floor,owner_name,owner_type,latitude,longitude,landuse,community_district,council_district,districts,in_hells_kitchen,in_community_board_4,in_council_district_3,zola_url,has_financing_document,document_type,document_date,document_amount,finance_amount_per_gross_sqft,finance_amount_per_rentable_sqft,document_crfn,property_type,street_address
1005800065.00000000,171 VARICK STREET,137975,1926,2015,2012,2015,10,175228.25,17522.83,"THE GEORGIAN PRESS, INC.",,40.7274026,-74.0059747,5,102,3,Council District 3,False,False,True,https://zola.planning.nyc.gov/l/lot/1/580/65,True,MTGE,2012-11-15T00:00:00.000,6514878.65,47.22,37.18,2012000460745,OF,171 VARICK STREET
1005190070.00000000,180 VARICK STREET,329116,1929,2005,2013,2013,17,417977.32,24586.9,180 VARICK LLC,,40.7274823,-74.0051377,5,102,3,Council District 3,False,False,True,https://zola.planning.nyc.gov/l/lot/1/519/70,False,,,,0.0,0.0,,,180 VARICK STREET
1005810001.00000000,201 VARICK STREET,930680,1928,0,0,0,12,1181963.6,98496.97,US GENERAL SERVICES ADMINISTRATIONN,X,40.7283303,-74.0062743,5,102,3,Council District 3,False,False,True,https://zola.planning.nyc.gov/l/lot/1/581/1,False,,,,0.0,0.0,,,201 VARICK STREET
1005050036.00000000,161 AVENUE OF THE AMERICAS,615107,1926,2014,2014,2014,13,781185.89,60091.22,OSS 2016 LLC,,40.7259040,-74.0045784,5,102,3,Council District 3,False,False,True,https://zola.planning.nyc.gov/l/lot/1/505/36,True,MTGE,2021-07-09T00:00:00.000,55000000.00,89.42,70.41,2021000294738,CR,161 AVENUE OF THE AMERICAS
1005050001.00000000,150 VARICK STREET,214110,1926,2013,0,2013,10,271919.7,27191.97,"W. & M. OPERATING, L.L.C.",,40.7260138,-74.0053216,5,102,3,Council District 3,False,False,True,https://zola.planning.nyc.gov/l/lot/1/505/1,True,MTGE,,181610,0.85,0.67,,PA,150 VARICK STREET
1005800022.00000000,157 VARICK STREET,164791,1922,2011,0,2011,16,209284.57,13080.29,"SM I MMS, L.L.C.",,40.7266972,-74.0061190,6,102,3,Council District 3,False,False,True,https://zola.planning.nyc.gov/l/lot/1/580/22,True,MTGE,2021-12-16T00:00:00.000,1706011000.00,10352.57,8151.63,2022000008012,CR,157 VARICK STREET
1005960002.00000000,532 WASHINGTON STREET,1009855,1933,0,0,0,12,1282515.85,106876.32,550 WASHINGTON OWNER (DE) LLC,,40.7281846,-74.0100410,5,102,3,Council District 3,False,False,True,https://zola.planning.nyc.gov/l/lot/1/596/2,False,,,,0.0,0.0,,,532 WASHINGTON STREET
1005970062.00000000,323 HUDSON STREET,193813,1967,2007,2016,2016,10,246142.51,24614.25,"DWF VI 325 HUDSON, LLC",,40.7268728,-74.0079049,5,102,3,Council District 3,False,False,True,https://zola.planning.nyc.gov/l/lot/1/597/62,True,MTGE,2021-05-20T00:00:00.000,112168550,578.75,455.71,2021000216316,OF,323 HUDSON STREET
1005980058.00000000,341 HUDSON STREET,797477,1931,2017,2014,2017,17,1012795.79,59576.22,561 HH LLC,,40.7277456,-74.0078581,5,102,3,Council District 3,False,False,True,https://zola.planning.nyc.gov/l/lot/1/598/58,True,DEED,2019-04-16T00:00:00.000,10.00,0.0,0.0,2019000155934,CR,341 HUDSON STREET
1005990064.00000000,375 HUDSON STREET,1076164,1987,2012,2014,2014,18,1366728.28,75929.35,NEW REMAINDERMAN 375 HUDSON LLC,,40.7284812,-74.0079232,5,102,3,Council District 3,False,False,True,https://zola.planning.nyc.gov/l/lot/1/599/64,True,DEED,2019-04-16T00:00:00.000,10.00,0.0,0.0,2019000155942,CR,375 HUDSON STREET
1005970055.00000000,333 HUDSON STREET,101290,1925,2007,0,2007,10,128638.3,12863.83,33 HUDSON STREET,,40.7271335,-74.0076885,5,102,3,Council District 3,False,False,True,https://zola.planning.nyc.gov/l/lot/1/597/55,True,MTGE,2020-09-03T00:00:00.000,776119.93,7.66,6.03,2020000266931,CR,333 HUDSON STREET
1005800039.00000000,350 HUDSON STREET,259427,1930,2010,2013,2013,9,329472.29,36608.03,NEW REMAINDERMAN 350 HUDSON LLC,,40.7276468,-74.0068443,5,102,3,Council District 3,False,False,True,https://zola.planning.nyc.gov/l/lot/1/580/39,True,DEED,2019-04-16T00:00:00.000,10.00,0.0,0.0,2019000155935,CR,350 HUDSON STREET
1007310001.00000000,460 WEST 34 STREET,538520,1927,0,0,0,19,683920.4,35995.81,601W TENTH OWNER LLC,,40.7540516,-73.9989785,5,104,3,"Community Board 4, Council District 3",False,True,True,https://zola.planning.nyc.gov/l/lot/1/731/1,True,DEED,2020-12-18T00:00:00.000,809912583.37,1503.96,1184.22,2021000016465,CR,460 WEST 34 STREET
1007290163.00000000,424 WEST 33 STREET,178460,1913,0,0,0,13,226644.2,17434.17,BOP NW LOFT LLC,,40.7530442,-73.9981412,5,104,3,"Community Board 4, Council District 3",False,True,True,https://zola.planning.nyc.gov/l/lot/1/729/163,True,MTGE,2005-05-10T00:00:00.000,17000000,95.26,75.01,2005000328631,OF,424 WEST 33 STREET
1007540078.00000000,362 9 AVENUE,338962,1931,1989,2015,2015,16,430481.74,26905.11,TEACHERS INSURANCE AND ANNUITY ASSOC. OF  AMERICA,,40.7510872,-73.9973256,5,104,3,"Community Board 4, Council District 3",False,True,True,https://zola.planning.nyc.gov/l/lot/1/754/78,True,DEED,2014-11-18T00:00:00.000,244000000,719.84,566.81,2014000390485,CR,362 9 AVENUE
1007570054.00000000,330 WEST 34 STREET,646464,1926,1984,2014,2014,18,821009.28,45611.63,330 WEST 34TH OWNER LLC,,40.7525968,-73.9955064,5,104,3,"Community Board 4, Council District 3",False,True,True,https://zola.planning.nyc.gov/l/lot/1/757/54,True,MTGE,2022-08-18T00:00:00.000,49850000.00,77.11,60.72,2022000380164,CR,330 WEST 34 STREET
1007680050.00000000,220 WEST 19 STREET,115433,1910,1985,2008,2008,12,146599.91,12216.66,RED CIRCLE N.Y. CORP,,40.7418594,-73.9985204,5,104,3,"Community Board 4, Council District 3",False,True,True,https://zola.planning.nyc.gov/l/lot/1/768/50,True,DEED,2006-08-09T00:00:00.000,51712500,447.99,352.75,2006000613331,OF,220 WEST 19 STREET
1007950028.00000000,111 WEST 19 STREET,165513,1901,2003,2015,2015,8,210201.51,26275.19,19TH STREET OWNER LLC,,40.7410770,-73.9951969,5,104,3,"Community Board 4, Council District 3",False,True,True,https://zola.planning.nyc.gov/l/lot/1/795/28,True,MTGE,2015-12-18T00:00:00.000,10000000,60.42,47.57,2016000004587,OT,111 WEST 19 STREET
1008000025.00000000,119 WEST 24 STREET,130876,1913,2015,1998,2015,12,166212.52,13851.04,"119 WEST 24TH STREET PROPERTIES, LLC",,40.7441922,-73.9932009,5,104,3,"Community Board 4, Council District 3",False,True,True,https://zola.planning.nyc.gov/l/lot/1/800/25,True,MTGE,2016-09-21T00:00:00.000,50220000,383.72,302.14,2016000334079,CR,119 WEST 24 STREET
1008010024.00000000,119 WEST 25 STREET,128947,1906,1989,2016,2016,12,163762.69,13646.89,"AFIAA 125 WEST 25TH STREET, LLC",,40.7448043,-73.9927606,5,104,3,"Community Board 4, Council District 3",False,True,True,https://zola.planning.nyc.gov/l/lot/1/801/24,True,DEED,2016-12-16T00:00:00.000,150000000,1163.27,915.96,2016000454749,CR,119 WEST 25 STREET
1008010001.00000000,275 7 AVENUE,548680,1928,1985,0,1985,27,696823.6,25808.28,275 SEVENTH AVENUE BUILDING LLC,,40.7455454,-73.9941608,5,104,3,"Community Board 4, Council District 3",False,True,True,https://zola.planning.nyc.gov/l/lot/1/801/1,True,MTGE,2020-02-18T00:00:00.000,50000000.00,91.13,71.75,2020000068920,CR,275 7 AVENUE
1008037502.00000000,301 7 AVENUE,119248,1920,0,0,0,21,151444.96,7211.66,"NEWMARK,KNIGHT & FRANK",,40.7466433,-73.9933775,5,105,3,Council District 3,False,False,True,https://zola.planning.nyc.gov/l/lot/1/803/7502,False,,,,0.0,0.0,,,301 7 AVENUE
1008020075.00000000,158 WEST 27 STREET,108000,1913,1989,2008,2008,12,137160.0,11430.0,"AFIAA 158 WEST 27TH STREET, LLC",,40.7461794,-73.9933379,5,105,3,"Community Board 4, Council District 3",False,True,True,https://zola.planning.nyc.gov/l/lot/1/802/75,True,MTGE,2019-10-24T00:00:00.000,50000000.00,462.96,364.54,2019000354140,CR,158 WEST 27 STREET
1007850037.00000000,462 7 AVENUE,189734,1925,0,0,0,23,240962.18,10476.62,S I K ASSOCIATES,,40.7519624,-73.9903344,5,105,3,Council District 3,False,False,True,https://zola.planning.nyc.gov/l/lot/1/785/37,True,MTGE,2021-05-26T00:00:00.000,4930557.43,25.99,20.46,2021000227755,OF,462 7 AVENUE
1008177502.00000000,100 5 AVENUE,250671,1906,1979,0,1979,19,318352.17,16755.38,UNAVAILABLE OWNER,,40.7370504,-73.9933135,5,105,3,Council District 3,False,False,True,https://zola.planning.nyc.gov/l/lot/1/817/7502,False,,,,0.0,0.0,,,100 5 AVENUE
1008227507.00000000,160 FIFTH AVENUE,111163,1900,2013,0,2013,9,141177.01,15686.33,RFL 160 FIFTH LLC,,40.7402396,-73.9910289,5,105,3,Council District 3,False,False,True,https://zola.planning.nyc.gov/l/lot/1/822/7507,False,,,,0.0,0.0,,,160 FIFTH AVENUE
1008207505.00000000,620 AVENUE OF THE AMER,684465,1900,2012,0,2012,7,869270.55,124181.51,UNAVAILABLE OWNER,,40.7397622,-73.9939051,5,105,3,Council District 3,False,False,True,https://zola.planning.nyc.gov/l/lot/1/820/7505,False,,,,0.0,0.0,,,620 AVENUE OF THE AMER
1008187501.00000000,590 AVENUE OF THE AMER,144461,1988,0,0,0,16,183465.47,11466.59,UNAVAILABLE OWNER,,40.7389004,-73.9951826,5,105,3,Council District 3,False,False,True,https://zola.planning.nyc.gov/l/lot/1/818/7501,False,,,,0.0,0.0,,,590 AVENUE OF THE AMER
1008237506.00000000,162 5 AVENUE,114503,1930,0,0,0,12,145418.81,12118.23,UNAVAILABLE OWNER,,40.7405855,-73.9908088,5,105,3,Council District 3,False,False,True,https://zola.planning.nyc.gov/l/lot/1/823/7506,False,,,,0.0,0.0,,,162 5 AVENUE
1008307502.00000000,250 FIFTH AVENUE,118664,1908,2018,2018,2018,23,150703.28,6552.32,COSMIC REALTY PARTNERS LLC,,40.7450207,-73.9876071,5,105,3,Council District 3,False,False,True,https://zola.planning.nyc.gov/l/lot/1/830/7502,False,,,,0.0,0.0,,,250 FIFTH AVENUE
1007407502.00000000,346 WEST 17 STREET,183484,1966,0,0,0,12,233024.68,19418.72,UNAVAILABLE OWNER,,40.7422930,-74.0034283,5,104,3,"Community Board 4, Council District 3",False,True,True,https://zola.planning.nyc.gov/l/lot/1/740/7502,False,,,,0.0,0.0,,,346 WEST 17 STREET
1007187502.00000000,180 10 AVENUE,106206,1931,0,0,0,8,134881.62,16860.2,UNAVAILABLE OWNER,,40.7459709,-74.0048973,5,104,3,"Community Board 4, Council District 3",False,True,True,https://zola.planning.nyc.gov/l/lot/1/718/7502,False,,,,0.0,0.0,,,180 10 AVENUE
1008087501.00000000,401 7 AVENUE,152460,1917,0,0,0,23,193624.2,8418.44,GRAPSTEIN,,40.7496925,-73.9905585,5,105,3,Council District 3,False,False,True,https://zola.planning.nyc.gov/l/lot/1/808/7501,False,,,,0.0,0.0,,,401 7 AVENUE
1008097501.00000000,132 WEST 32 STREET,114415,1960,0,0,0,18,145307.05,8072.61,UNAVAILABLE OWNER,,40.7499697,-73.9896778,5,105,3,Council District 3,False,False,True,https://zola.planning.nyc.gov/l/lot/1/809/7501,False,,,,0.0,0.0,,,132 WEST 32 STREET
1008127501.00000000,481 7 AVENUE,230246,1906,1991,0,1991,17,292412.42,17200.73,UNAVAILABLE OWNER,,40.7522807,-73.9891361,5,105,3,Council District 3,False,False,True,https://zola.planning.nyc.gov/l/lot/1/812/7501,False,,,,0.0,0.0,,,481 7 AVENUE
1008117502.00000000,1333 BROADWAY,276762,1915,0,0,0,12,351487.74,29290.65,"ESRT 1333 BROADWAY, L.L.C.",,40.7511690,-73.9881365,5,105,3,Council District 3,False,False,True,https://zola.planning.nyc.gov/l/lot/1/811/7502,False,,,,0.0,0.0,,,1333 BROADWAY
1008117501.00000000,469 7 AVENUE,193534,1921,0,0,0,16,245788.18,15361.76,UNAVAILABLE OWNER,,40.7519349,-73.9894501,5,105,3,Council District 3,False,False,True,https://zola.planning.nyc.gov/l/lot/1/811/7501,False,,,,0.0,0.0,,,469 7 AVENUE
1007887501.00000000,214 WEST 39 STREET,172608,1910,0,0,0,12,219212.16,18267.68,UNAVAILABLE OWNER,,40.7543201,-73.9893631,5,105,3,Council District 3,False,False,True,https://zola.planning.nyc.gov/l/lot/1/788/7501,False,,,,0.0,0.0,,,214 WEST 39 STREET
1010127502.00000000,200 WEST 41 STREET,150338,1926,0,0,0,21,190929.26,9091.87,UNAVAILABLE OWNER,,40.7553437,-73.9878614,5,105,3,Council District 3,False,False,True,https://zola.planning.nyc.gov/l/lot/1/1012/7502,False,,,,0.0,0.0,,,200 WEST 41 STREET
1010167501.00000000,700 8 AVENUE,487156,1961,0,0,0,30,618688.12,20622.94,UNAVAILABLE OWNER,,40.7587088,-73.9883084,5,105,3,Council District 3,False,False,True,https://zola.planning.nyc.gov/l/lot/1/1016/7501,False,,,,0.0,0.0,,,700 8 AVENUE
1010347501.00000000,311 WEST 43RD ST,150110,1925,2013,0,2013,14,190639.7,13617.12,"DWF V 311 W 43RD, LLC",,40.7584482,-73.9899978,5,104,3,"Hell's Kitchen, Community Board 4, Council District 3",True,True,True,https://zola.planning.nyc.gov/l/lot/1/1034/7501,False,,,,0.0,0.0,,,311 WEST 43RD ST
1010207501.00000000,790 8 AVENUE,238667,1962,0,0,0,14,303107.09,21650.51,UNAVAILABLE OWNER,,40.7612283,-73.9865103,5,105,3,Council District 3,False,False,True,https://zola.planning.nyc.gov/l/lot/1/1020/7501,False,,,,0.0,0.0,,,790 8 AVENUE
1010197502.00000000,1585 BROADWAY,1028336,1987,0,0,0,42,1305986.72,31094.92,MS FINANCING INC,,40.7599766,-73.9855071,5,105,3,Council District 3,False,False,True,https://zola.planning.nyc.gov/l/lot/1/1019/7502,False,,,,0.0,0.0,,,1585 BROADWAY
1010197501.00000000,2 TIMES SQUARE,229188,1990,0,0,0,25,291068.76,11642.75,SHERWOOD 48 ASSOC                  JEFFR EY KATZ,,40.7596718,-73.9846588,5,105,3,Council District 3,False,False,True,https://zola.planning.nyc.gov/l/lot/1/1019/7501,False,,,,0.0,0.0,,,2 TIMES SQUARE
1010477502.00000000,959 8 AVENUE,703796,1928,2003,0,2003,6,893820.92,148970.15,UNAVAILABLE OWNER,,40.7665582,-73.9836140,5,104,6,"Hell's Kitchen, Community Board 4",True,True,False,https://zola.planning.nyc.gov/l/lot/1/1047/7502,False,,,,0.0,0.0,,,959 8 AVENUE
1010487502.00000000,353 WEST 57 STREET,461930,1929,1980,1999,1999,24,586651.1,24443.8,HENRY HUDSON HOLDINGS CORP,,40.7680597,-73.9849818,5,104,6,"Hell's Kitchen, Community Board 4",True,True,False,https://zola.planning.nyc.gov/l/lot/1/1048/7502,False,,,,0.0,0.0,,,353 WEST 57 STREET
1006887501.00000000,99 10 AVENUE,708000,1917,0,0,0,11,899160.0,81741.82,NAME NOT ON FILE,,40.7440549,-74.0076940,5,104,3,"Community Board 4, Council District 3",False,True,True,https://zola.planning.nyc.gov/l/lot/1/688/7501,False,,,,0.0,0.0,,,99 10 AVENUE
1006937503.00000000,510 WEST 22ND STREET,129231,1920,0,0,0,11,164123.37,14920.31,"510 WEST 22ND STREET OWNER, LLC",,40.7470194,-74.0056986,5,104,3,"Community Board 4, Council District 3",False,True,True,https://zola.planning.nyc.gov/l/lot/1/693/7503,False,,,,0.0,0.0,,,510 WEST 22ND STREET
1010777502.00000000,514 WEST 49TH STREET,102164,1920,0,0,0,4,129748.28,32437.07,THE AMERICAN NATIONA,X,40.7644183,-73.9936934,5,104,3,"Hell's Kitchen, Community Board 4, Council District 3",True,True,True,https://zola.planning.nyc.gov/l/lot/1/1077/7502,False,,,,0.0,0.0,,,514 WEST 49TH STREET
1011027501.00000000,787 11TH AVE,369656,1929,2003,2016,2016,10,469463.12,46946.31,"GEORGETOWN ELEVENTH AVENUE OWNERS, LLC",,40.7689086,-73.9930901,5,104,6,"Hell's Kitchen, Community Board 4",True,True,False,https://zola.planning.nyc.gov/l/lot/1/1102/7501,False,,,,0.0,0.0,,,787 11TH AVE
1010867501.00000000,521 WEST 57 STREET,332376,1927,1988,0,1988,10,422117.52,42211.75,UNAVAILABLE OWNER,,40.7699569,-73.9895592,5,104,6,"Hell's Kitchen, Community Board 4",True,True,False,https://zola.planning.nyc.gov/l/lot/1/1086/7501,False,,,,0.0,0.0,,,521 WEST 57 STREET
1007627503.00000000,307 WEST 38TH STREET,225464,1927,0,0,0,20,286339.28,14316.96,GLENHILL ASSOCIATES LLC,,40.7552288,-73.9921639,5,104,3,"Hell's Kitchen, Community Board 4, Council District 3",True,True,True,https://zola.planning.nyc.gov/l/lot/1/762/7503,False,,,,0.0,0.0,,,307 WEST 38TH STREET
1010747501.00000000,535 WEST 45 STREET,130400,1930,0,0,0,11,165608.0,15055.27,UNAVAILABLE OWNER,,40.7625190,-73.9957873,5,104,3,"Hell's Kitchen, Community Board 4, Council District 3",True,True,True,https://zola.planning.nyc.gov/l/lot/1/1074/7501,False,,,,0.0,0.0,,,535 WEST 45 STREET
1007587501.00000000,333 WEST 34 STREET,286520,1954,1983,0,1983,10,363880.4,36388.04,UNAVAILABLE OWNER,,40.7532911,-73.9948928,5,104,3,"Hell's Kitchen, Community Board 4, Council District 3",True,True,True,https://zola.planning.nyc.gov/l/lot/1/758/7501,False,,,,0.0,0.0,,,333 WEST 34 STREET
1007327501.00000000,441 NINTH AVENUE,512974,1962,2015,2017,2017,26,651476.98,25056.81,"CBP 441 NINTH AVENUE OWNER, LLC",,40.7539335,-73.9965133,5,104,3,"Hell's Kitchen, Community Board 4, Council District 3",True,True,True,https://zola.planning.nyc.gov/l/lot/1/732/7501,False,,,,0.0,0.0,,,441 NINTH AVENUE
1005067501.00000000,160 VARICK STREET,311477,1927,0,0,0,12,395575.79,32964.65,UNAVAILABLE OWNER,,40.7269168,-74.0052206,5,102,3,Council District 3,False,False,True,https://zola.planning.nyc.gov/l/lot/1/506/7501,False,,,,0.0,0.0,,,160 VARICK STREET
1005207503.00000000,200 VARICK STREET,390466,1926,2008,0,2008,12,495891.82,41324.32,200 VARICK STREET DE LLC,,40.7282535,-74.0047914,5,102,3,Council District 3,False,False,True,https://zola.planning.nyc.gov/l/lot/1/520/7503,False,,,,0.0,0.0,,,200 VARICK STREET
1005807501.00000000,330 HUDSON STREET,351759,1910,2008,2008,2008,0,446733.93,0.0,UNAVAILABLE OWNER,,40.7269195,-74.0069164,5,102,3,Council District 3,False,False,True,https://zola.planning.nyc.gov/l/lot/1/580/7501,False,,,,0.0,0.0,,,330 HUDSON STREET
1006467502.00000000,450 WEST 14 STREET,103878,1934,0,0,0,15,131925.06,8795.0,UNAVAILABLE OWNER,,40.7416752,-74.0078309,5,102,3,Council District 3,False,False,True,https://zola.planning.nyc.gov/l/lot/1/646/7502,False,,,,0.0,0.0,,,450 WEST 14 STREET
1006007501.00000000,395 HUDSON STREET,579930,1921,0,0,0,9,736511.1,81834.57,UNAVAILABLE OWNER,,40.7292031,-74.0077753,5,102,3,Council District 3,False,False,True,https://zola.planning.nyc.gov/l/lot/1/600/7501,False,,,,0.0,0.0,,,395 HUDSON STREET
1007297507.00000000,450 WEST 33RD STREET,1438273,1969,0,0,0,14,1826606.71,130471.91,450 PARTNERS LLC,,40.7530442,-73.9994478,5,104,3,"Community Board 4, Council District 3",False,True,True,https://zola.planning.nyc.gov/l/lot/1/729/7507,False,,,,0.0,0.0,,,450 WEST 33RD STREET
1007757501.00000000,217 WEST 25 STREET,109490,1912,0,0,0,12,139052.3,11587.69,ARADCO LTD,,40.7458584,-73.9952579,5,104,3,"Community Board 4, Council District 3",False,True,True,https://zola.planning.nyc.gov/l/lot/1/775/7501,False,,,,0.0,0.0,,,217 WEST 25 STREET
1010180018.00000000,219 WEST 46 STREET,399325,1930,0,0,0,22,507142.75,23051.94,"EDISON MANAGEMENT CO., L.L.C.",,40.7595787,-73.9862832,5,105,3,Council District 3,False,False,True,https://zola.planning.nyc.gov/l/lot/1/1018/18,True,MTGE,2015-04-23T00:00:00.000,20000000,50.08,39.44,2015000150506,OT,219 WEST 46 STREET
1010190055.00000000,234 WEST 48 STREET,117102,1927,1989,0,1989,16,148719.54,9294.97,234 WEST 48 LLC,,40.7605284,-73.9863877,5,105,3,Council District 3,False,False,True,https://zola.planning.nyc.gov/l/lot/1/1019/55,True,MTGE,2013-10-18T00:00:00.000,13200000,112.72,88.76,2013000449986,CR,234 WEST 48 STREET
1010210026.00000000,750 7 AVENUE,561139,1988,0,0,0,34,712646.53,20960.19,750 SEVENTH AVE NY LLC,,40.7608848,-73.9839114,5,105,3,Council District 3,False,False,True,https://zola.planning.nyc.gov/l/lot/1/1021/26,True,DEED,2011-05-03T00:00:00.000,485000000,864.31,680.56,2011000170733,OF,750 7 AVENUE
1010390017.00000000,319 WEST 48 STREET,186954,1961,1989,0,1989,16,237431.58,14839.47,319 BELVEDERE REALTYCO,,40.7617472,-73.9879361,5,104,3,"Hell's Kitchen, Community Board 4, Council District 3",True,True,True,https://zola.planning.nyc.gov/l/lot/1/1039/17,True,MTGE,2020-02-13T00:00:00.000,3979460.71,21.29,16.76,2020000067087,OT,319 WEST 48 STREET
1010400029.00000000,825 8 AVENUE,1596521,1987,0,0,0,49,2027581.67,41379.22,"WWP OFFICE, LLC",,40.7622302,-73.9869433,5,104,3,"Hell's Kitchen, Community Board 4, Council District 3",True,True,True,https://zola.planning.nyc.gov/l/lot/1/1040/29,True,MTGE,2013-02-25T00:00:00.000,240000000,150.33,118.37,2013000138769,OF,825 8 AVENUE
1008310042.00000000,276 5 AVENUE,133300,1920,0,0,0,11,169291.0,15390.09,"MK 276, LLC",,40.7459017,-73.9869140,5,105,3,Council District 3,False,False,True,https://zola.planning.nyc.gov/l/lot/1/831/42,True,DEED,2025-04-29T00:00:00.000,62023351.19,465.29,366.37,2025000125305,CR,276 5 AVENUE
1007130001.00000000,75 9 AVENUE,1100533,1905,2014,2015,2015,8,1397676.91,174709.61,MANHATTAN CHELSEA MARKET LLC,P,40.7425509,-74.0060555,5,104,3,"Community Board 4, Council District 3",False,True,True,https://zola.planning.nyc.gov/l/lot/1/713/1,True,DEED,2018-03-20T00:00:00.000,2397501899,2178.49,1715.35,2018000097639,CR,75 9 AVENUE
1007120001.00000000,444 WEST 15 STREET,281361,1936,1971,2012,2012,8,357328.47,44666.06,BLACK LARK ENTERPRISES LLC,,40.7422407,-74.0072608,5,104,3,"Community Board 4, Council District 3",False,True,True,https://zola.planning.nyc.gov/l/lot/1/712/1,True,DEED,2019-05-22T00:00:00.000,591800000.00,2103.35,1656.18,2019000168995,OF,444 WEST 15 STREET
1008030007.00000000,153 WEST 27 STREET,115925,1912,1989,0,1989,12,147224.75,12268.73,JUSTIN PROPERTIES,,40.7465335,-73.9930311,5,105,3,Council District 3,False,False,True,https://zola.planning.nyc.gov/l/lot/1/803/7,True,MTGE,2022-03-11T00:00:00.000,3000000.00,25.88,20.38,2022000121089,CR,153 WEST 27 STREET
1008040044.00000000,104 WEST 29 STREET,121579,1923,2003,0,2003,12,154405.33,12867.11,104 WEST 29 ST CO,,40.7467200,-73.9907971,5,105,3,Council District 3,False,False,True,https://zola.planning.nyc.gov/l/lot/1/804/44,True,MTGE,2024-05-09T00:00:00.000,10990000,90.39,71.18,2024000125207,CR,104 WEST 29 STREET
1006980001.00000000,244 11 AVENUE,154433,1912,1983,0,1983,7,196129.91,28018.56,CIRCLE 1 LLC,P,40.7509417,-74.0049446,5,104,3,"Community Board 4, Council District 3",False,True,True,https://zola.planning.nyc.gov/l/lot/1/698/1,True,MTGE,2015-12-22T00:00:00.000,2173423.1,14.07,11.08,2016000012196,OF,244 11 AVENUE
1008070028.00000000,119 WEST 31 STREET,221227,1912,1982,0,1982,16,280958.29,17559.89,116 WEST 32ND I LLC,,40.7485891,-73.9898549,5,105,3,Council District 3,False,False,True,https://zola.planning.nyc.gov/l/lot/1/807/28,True,MTGE,2016-11-04T00:00:00.000,40000000,180.81,142.37,2017000001416,OF,119 WEST 31 STREET
1008070039.00000000,875 AVENUE OF THE AMER,214349,1926,0,0,0,25,272223.23,10888.93,BCSP-K 875 PROPERTY LLC,,40.7482130,-73.9893460,5,105,3,Council District 3,False,False,True,https://zola.planning.nyc.gov/l/lot/1/807/39,True,DEED,2023-06-30T00:00:00.000,92500000.00,431.54,339.79,2023000172945,CR,875 AVENUE OF THE AMER
1007840064.00000000,240 WEST 35 STREET,145372,1924,0,0,0,17,184622.44,10860.14,240 WEST 35TH OWNER LLC,,40.7521409,-73.9918539,5,105,3,Council District 3,False,False,True,https://zola.planning.nyc.gov/l/lot/1/784/64,True,DEED,2024-06-26T00:00:00.000,30000000,206.37,162.49,2024000172759,CR,240 WEST 35 STREET
1007850018.00000000,237 WEST 35 STREET,144141,1924,0,2015,2015,17,183059.07,10768.18,35TH STREET ASSOCIATES,,40.7524593,-73.9914640,5,105,3,Council District 3,False,False,True,https://zola.planning.nyc.gov/l/lot/1/785/18,True,MTGE,,6000000,41.63,32.78,,PA,237 WEST 35 STREET
1008150001.00000000,1411 BROADWAY,1088074,1969,2016,0,2016,42,1381853.98,32901.29,1411 IC-SIC PROPERTY LLC,,40.7541936,-73.9875657,5,105,3,Council District 3,False,False,True,https://zola.planning.nyc.gov/l/lot/1/815/1,True,MTGE,2020-02-28T00:00:00.000,35000000.00,32.17,25.33,2020000084010,CR,1411 BROADWAY
1008140015.00000000,1407 BROADWAY,911896,1950,2017,0,2017,43,1158107.92,26932.74,1407 BROADWAY,,40.7535322,-73.9877679,5,105,3,Council District 3,False,False,True,https://zola.planning.nyc.gov/l/lot/1/814/15,True,MTGE,2019-11-01T00:00:00.000,64000000.00,70.18,55.26,2019000370481,CR,1407 BROADWAY
1007880049.00000000,530 7 AVENUE,408130,1929,0,0,0,30,518325.1,17277.5,RS REALTY SPE 530 LLC,,40.7541032,-73.9888723,5,105,3,Council District 3,False,False,True,https://zola.planning.nyc.gov/l/lot/1/788/49,True,MTGE,2021-02-26T00:00:00.000,25000000.00,61.25,48.23,2021000113158,CR,530 7 AVENUE
1007880037.00000000,209 WEST 38 STREET,144635,1910,1974,0,1974,12,183686.45,15307.2,209-219 W. 38 LLC,,40.7539660,-73.9892766,5,105,3,Council District 3,False,False,True,https://zola.planning.nyc.gov/l/lot/1/788/37,True,MTGE,2021-07-16T00:00:00.000,216098.50,1.49,1.18,2021000288411,OF,209 WEST 38 STREET
1010350017.00000000,315 WEST 44 STREET,181021,1931,1990,2017,2017,10,229896.67,22989.67,PLANT REALTY LLC,,40.7592249,-73.9897919,5,104,3,"Hell's Kitchen, Community Board 4, Council District 3",True,True,True,https://zola.planning.nyc.gov/l/lot/1/1035/17,True,DEED,2024-09-19T00:00:00.000,40500000,223.73,176.17,2024000248473,CR,315 WEST 44 STREET
1010200046.00000000,1601 BROADWAY,843131,1987,2005,0,2005,46,1070776.37,23277.75,EGL 1605 OWNER LLC,,40.7606188,-73.9850774,5,105,3,Council District 3,False,False,True,https://zola.planning.nyc.gov/l/lot/1/1020/46,True,DEED,2024-07-23T00:00:00.000,53285772,63.2,49.76,2024000212565,OF,1601 BROADWAY
1010230018.00000000,1651 BROADWAY,325216,1929,2012,2012,2012,26,413024.32,15885.55,"M&C NEW YORK TIMES SQUARE EAT II, LLC",,40.7625179,-73.9837485,5,105,3,Council District 3,False,False,True,https://zola.planning.nyc.gov/l/lot/1/1023/18,True,MTGE,2018-03-09T00:00:00.000,15047295.83,46.27,36.43,2018000088075,CR,1651 BROADWAY
1010480033.00000000,4 COLUMBUS CIRCLE,102720,1987,0,0,0,8,130454.4,16306.8,"GLL BVK COLUMBUS CIRCLE, LLC",,40.7673568,-73.9829062,5,104,6,"Hell's Kitchen, Community Board 4",True,True,False,https://zola.planning.nyc.gov/l/lot/1/1048/33,True,MTGE,2011-11-21T00:00:00.000,5620539.77,54.72,43.08,2011000446215,OF,4 COLUMBUS CIRCLE
1010350001.00000000,630 9 AVENUE,236280,1929,2016,0,2016,13,300075.6,23082.74,"GSH ASSOCIATES, LLC",,40.7599140,-73.9911635,5,104,3,"Hell's Kitchen, Community Board 4, Council District 3",True,True,True,https://zola.planning.nyc.gov/l/lot/1/1035/1,True,MTGE,2017-09-28T00:00:00.000,46254123.57,195.76,154.14,2017000398632,OF,630 9 AVENUE
1006970042.00000000,508 WEST 26 STREET,146416,1927,2004,0,2004,9,185948.32,20660.92,WEST CHELSEA BUILDING LLC,,40.7497532,-74.0037499,5,104,3,"Community Board 4, Council District 3",False,True,True,https://zola.planning.nyc.gov/l/lot/1/697/42,True,MTGE,2010-03-24T00:00:00.000,348209.25,2.38,1.87,2010000111059,CR,508 WEST 26 STREET
1006700070.00000000,231 11 AVENUE,217350,1913,2014,0,2014,9,276034.5,30670.5,BULGROUP COLORADO LLC,,40.7509333,-74.0064497,6,104,3,"Community Board 4, Council District 3",False,True,True,https://zola.planning.nyc.gov/l/lot/1/670/70,True,MTGE,2015-10-13T00:00:00.000,3499999,16.1,12.68,2015000386325,CR,231 11 AVENUE
1008560058.00000000,60 MADISON AVENUE,169360,1910,2015,2017,2017,12,215087.2,17206.98,MADISON SIXTY OWNER LLC,,40.7432227,-73.9866294,5,105,3,Council District 3,False,False,True,https://zola.planning.nyc.gov/l/lot/1/856/58,True,MTGE,2016-09-12T00:00:00.000,33500000,197.8,155.75,2016000334473,CR,60 MADISON AVENUE
1008290068.00000000,44 WEST 28 STREET,141830,1911,1990,0,1990,16,180124.1,11257.76,"44 W. 28 PENN PLAZA PROPERTIES, LLC",,40.7455863,-73.9900249,5,105,3,Council District 3,False,False,True,https://zola.planning.nyc.gov/l/lot/1/829/68,True,MTGE,2019-08-27T00:00:00.000,11129816.95,78.47,61.79,2019000285811,CR,44 WEST 28 STREET
1008230024.00000000,19 WEST 21 STREET,113284,1908,0,0,0,12,143870.68,11989.22,FIFTH PARTNERS LLC,,40.7410302,-73.9917650,5,105,3,Council District 3,False,False,True,https://zola.planning.nyc.gov/l/lot/1/823/24,True,MTGE,2016-10-13T00:00:00.000,18318020.11,161.7,127.32,2016000378643,OF,19 WEST 21 STREET
1008120019.00000000,135 WEST 36 STREET,108214,1925,0,0,0,22,137431.78,6246.9,HOWARD WAREHOUSE INC.,,40.7519073,-73.9883349,5,105,3,Council District 3,False,False,True,https://zola.planning.nyc.gov/l/lot/1/812/19,True,MTGE,2018-10-31T00:00:00.000,7700000,71.16,56.03,2018000368474,OF,135 WEST 36 STREET
1008120016.00000000,141 WEST 36 STREET,165000,1911,1965,0,1965,22,209550.0,9525.0,"BRAUSE, JACK",,40.7520144,-73.9885045,5,105,3,Council District 3,False,False,True,https://zola.planning.nyc.gov/l/lot/1/812/16,False,,,,0.0,0.0,,,141 WEST 36 STREET
1007840060.00000000,224 WEST 35 STREET,143448,1924,0,0,0,17,182178.96,10716.41,PROFILE ENTERPRISES 2 LLC,,40.7519021,-73.9912945,5,105,3,Council District 3,False,False,True,https://zola.planning.nyc.gov/l/lot/1/784/60,True,MTGE,2019-06-12T00:00:00.000,25000000.00,174.28,137.23,2019000191569,CR,224 WEST 35 STREET
1007850029.00000000,213 WEST 35 STREET,163681,1921,0,0,0,13,207874.87,15990.37,"213 WEST 35TH ST. ASSOCIATES, L.P.",,40.7521353,-73.9906809,5,105,3,Council District 3,False,False,True,https://zola.planning.nyc.gov/l/lot/1/785/29,True,MTGE,2019-01-24T00:00:00.000,15000000.00,91.64,72.16,2019000033507,OF,213 WEST 35 STREET
1008110056.00000000,142 WEST 36 STREET,101203,1922,0,0,0,16,128527.81,8032.99,"142 WEST 36TH STREET PROPERTY, INC.",,40.7516796,-73.9888366,5,105,3,Council District 3,False,False,True,https://zola.planning.nyc.gov/l/lot/1/811/56,True,DEED,2019-05-30T00:00:00.000,81500000.00,805.31,634.1,2019000185970,CR,142 WEST 36 STREET
1007840041.00000000,450 7 AVENUE,491253,1930,1987,0,1987,46,623891.31,13562.85,450 7TH AVE ASSCTS,P,40.7514629,-73.9907531,5,105,3,Council District 3,False,False,True,https://zola.planning.nyc.gov/l/lot/1/784/41,True,MTGE,,2000000,4.07,3.21,,PA,450 7 AVENUE
1007870059.00000000,230 WEST 38 STREET,137887,1923,1987,0,1987,17,175116.49,10300.97,JLJ BRICKEN LLC,,40.7538014,-73.9900273,5,105,3,Council District 3,False,False,True,https://zola.planning.nyc.gov/l/lot/1/787/59,True,MTGE,2013-12-05T00:00:00.000,25000000,181.31,142.76,2013000520932,OF,230 WEST 38 STREET
1007870001.00000000,540 8 AVENUE,225858,1925,0,0,0,23,286839.66,12471.29,265 W 37 OWNER LLC,,40.7541446,-73.9916262,5,105,3,Council District 3,False,False,True,https://zola.planning.nyc.gov/l/lot/1/787/1,True,MTGE,2021-01-14T00:00:00.000,20000000,88.55,69.73,2021000060008,OF,540 8 AVENUE
1007870084.00000000,554 8 AVENUE,255696,1924,1972,0,1972,21,324733.92,15463.52,270 REALTY LLC,,40.7543696,-73.9913952,6,105,3,Council District 3,False,False,True,https://zola.planning.nyc.gov/l/lot/1/787/84,True,MTGE,2023-08-18T00:00:00.000,20000000,78.22,61.59,2023000219860,IB,554 8 AVENUE
1007880019.00000000,247 WEST 38 STREET,130010,1924,1967,0,1967,17,165112.7,9712.51,247 WEST 38 LLC,,40.7544354,-73.9903918,6,105,3,Council District 3,False,False,True,https://zola.planning.nyc.gov/l/lot/1/788/19,True,MTGE,2018-05-25T00:00:00.000,2000000,15.38,12.11,2018000181384,CR,247 WEST 38 STREET
1007880011.00000000,263 WEST 38 STREET,146377,1925,0,0,0,17,185898.79,10935.22,263 WEST 38TH STREET ASSOCIATES LLC,,40.7546331,-73.9908574,5,105,3,Council District 3,False,False,True,https://zola.planning.nyc.gov/l/lot/1/788/11,True,MTGE,2020-03-12T00:00:00.000,7000000.00,47.82,37.65,2020000099875,CR,263 WEST 38 STREET
1007880073.00000000,250 WEST 39 STREET,181921,1926,0,0,0,17,231039.67,13590.57,"250 WEST 39TH STREET, INC.",,40.7547236,-73.9903232,5,105,3,Council District 3,False,False,True,https://zola.planning.nyc.gov/l/lot/1/788/73,True,DEED,2015-12-01T00:00:00.000,123500000,678.87,534.54,2015000450989,CR,250 WEST 39 STREET
1007890009.00000000,257 WEST 39 STREET,177975,1925,0,0,0,16,226028.25,14126.77,BERDAR EQUITIES LLC,,40.7552369,-73.9903736,5,105,3,Council District 3,False,False,True,https://zola.planning.nyc.gov/l/lot/1/789/9,True,MTGE,2008-09-08T00:00:00.000,8000000,44.95,35.39,2008000371014,AP,257 WEST 39 STREET
1007880078.00000000,260 WEST 39 STREET,154516,1926,0,0,0,18,196235.32,10901.96,WEST 39-260 REALTY,,40.7548746,-73.9906805,5,105,3,Council District 3,False,False,True,https://zola.planning.nyc.gov/l/lot/1/788/78,True,MTGE,2019-08-20T00:00:00.000,13564118.42,87.78,69.12,2019000277556,CR,260 WEST 39 STREET
1007890014.00000000,251 WEST 39 STREET,108025,1925,0,0,0,17,137191.75,8070.1,"UNG 1 REALTY, LLC",,40.7551024,-73.9900524,5,105,3,Council District 3,False,False,True,https://zola.planning.nyc.gov/l/lot/1/789/14,True,MTGE,2020-09-11T00:00:00.000,500000.00,4.63,3.64,2020000270414,CR,251 WEST 39 STREET
1007890021.00000000,231 WEST 39 STREET,218558,1911,1989,0,1989,12,277568.66,23130.72,"JORDAN SCHUR PROPERTIES,",,40.7549239,-73.9896337,5,105,3,Council District 3,False,False,True,https://zola.planning.nyc.gov/l/lot/1/789/21,False,,,,0.0,0.0,,,231 WEST 39 STREET
1007890062.00000000,240 WEST 40 STREET,137199,1923,0,0,0,12,174242.73,14520.23,240 W 40 LLC,,40.7552149,-73.9895687,5,105,3,Council District 3,False,False,True,https://zola.planning.nyc.gov/l/lot/1/789/62,True,MTGE,2018-07-11T00:00:00.000,6595590.61,48.07,37.85,2018000233663,CR,240 WEST 40 STREET
1007890036.00000000,550 7 AVENUE,225981,1924,0,0,0,23,286995.87,12478.08,"550 ADLER REALTY RL, LLC",,40.7544600,-73.9885149,5,105,3,Council District 3,False,False,True,https://zola.planning.nyc.gov/l/lot/1/789/36,True,MTGE,2021-12-29T00:00:00.000,15009000.00,66.42,52.3,2022000021745,OF,550 7 AVENUE
1008140001.00000000,525 7 AVENUE,411074,1925,0,0,0,22,522063.98,23730.18,525 DELAWARE LLC,,40.7535020,-73.9881938,5,105,3,Council District 3,False,False,True,https://zola.planning.nyc.gov/l/lot/1/814/1,True,MTGE,2007-01-18T00:00:00.000,101039387.96,245.79,193.54,2007000079323,OF,525 7 AVENUE
1007890052.00000000,218 WEST 40 STREET,146486,1923,1985,0,1985,12,186037.22,15503.1,218 W 40TH ASSOCIATES LLC,,40.7549980,-73.9890562,5,105,3,Council District 3,False,False,True,https://zola.planning.nyc.gov/l/lot/1/789/52,True,MTGE,2014-09-16T00:00:00.000,1150598.35,7.85,6.18,2014000330350,CR,218 WEST 40 STREET
1009930055.00000000,1441 BROADWAY,494868,1929,2017,0,2017,33,628482.36,19044.92,LECHAR 1441 LLC,,40.7549978,-73.9871685,5,105,3,Council District 3,False,False,True,https://zola.planning.nyc.gov/l/lot/1/993/55,True,MTGE,2021-08-13T00:00:00.000,56000000.00,113.16,89.1,2021000361352,OF,1441 BROADWAY
1007890030.00000000,205 WEST 39 STREET,229162,1922,1952,0,1952,16,291035.74,18189.73,205 WEST 39TH ST COMPANY,,40.7547098,-73.9888216,5,105,3,Council District 3,False,False,True,https://zola.planning.nyc.gov/l/lot/1/789/30,True,MTGE,2013-12-13T00:00:00.000,4000000,17.45,13.74,2013000522175,CR,205 WEST 39 STREET
1010130042.00000000,221 WEST 41 STREET,235300,1921,1999,2019,2019,25,298831.0,11953.24,YS 220W42 OWNER LLC,,40.7561726,-73.9881573,5,105,3,Council District 3,False,False,True,https://zola.planning.nyc.gov/l/lot/1/1013/42,True,MTGE,2022-09-09T00:00:00.000,60000000.00,254.99,200.78,2022000363387,CR,221 WEST 41 STREET
1010120015.00000000,230 WEST 41 STREET,268420,1923,0,0,0,20,340893.4,17044.67,"230 WEST 41ST STREET, LLC",,40.7555442,-73.9889190,5,105,3,Council District 3,False,False,True,https://zola.planning.nyc.gov/l/lot/1/1012/15,True,MTGE,2024-05-13T00:00:00.000,13353381.34,49.75,39.17,2024000136422,CR,230 WEST 41 STREET
1010140055.00000000,250 WEST 43 STREET,238818,1929,2016,0,2016,22,303298.86,13786.31,250 WEST 43 OWNER LLC,,40.7573282,-73.9885000,5,105,3,Council District 3,False,False,True,https://zola.planning.nyc.gov/l/lot/1/1014/55,True,DEED,2015-01-22T00:00:00.000,191850000,803.33,632.54,2015000035391,CR,250 WEST 43 STREET
1007830070.00000000,250 WEST 34 STREET,2689635,1972,0,0,0,57,3415836.45,59926.96,KORPENN LLC,,40.7512626,-73.9923737,5,105,3,Council District 3,False,False,True,https://zola.planning.nyc.gov/l/lot/1/783/70,True,MTGE,2008-09-04T00:00:00.000,261692.49,0.1,0.08,2008000375021,OT,250 WEST 34 STREET
1007800036.00000000,370 7 AVENUE,332383,1921,0,0,0,17,422126.41,24830.97,"370 SEVENTH AVENUE FEE OWNER, LLC",,40.7489104,-73.9925544,5,105,3,Council District 3,False,False,True,https://zola.planning.nyc.gov/l/lot/1/780/36,True,MTGE,2025-05-23T00:00:00.000,1500000,4.51,3.55,2025000150229,CR,370 7 AVENUE
1008060076.00000000,371 7 AVENUE,473391,1929,1988,0,1988,28,601206.57,21471.66,CYH MANHATTAN LLC,,40.7487045,-73.9916630,5,105,3,Council District 3,False,False,True,https://zola.planning.nyc.gov/l/lot/1/806/76,True,MTGE,2016-12-20T00:00:00.000,18750000,39.61,31.19,2016000454678,CR,371 7 AVENUE
1008060058.00000000,128 WEST 31 STREET,384655,1925,1989,0,1989,17,488511.85,28735.99,VBGO PENN PLAZA FEE LLC,,40.7481884,-73.9907716,5,105,3,Council District 3,False,False,True,https://zola.planning.nyc.gov/l/lot/1/806/58,True,DEED,2018-01-11T00:00:00.000,31000000,80.59,63.46,2018000028097,CR,128 WEST 31 STREET
1005810063.00000000,225 VARICK STREET,299592,1926,2015,2010,2015,12,380481.84,31706.82,NEW REMAINDERMAN 225 VARICK LLC,,40.7290028,-74.0056574,5,102,3,Council District 3,False,False,True,https://zola.planning.nyc.gov/l/lot/1/581/63,True,DEED,2019-04-16T00:00:00.000,10.00,0.0,0.0,2019000155939,CR,225 VARICK STREET
1010160036.00000000,1515 BROADWAY,1721814,1970,1990,2013,2013,54,2186703.78,40494.51,1515 BROADWAY OWNER LLC,,40.7579291,-73.9864388,5,105,3,Council District 3,False,False,True,https://zola.planning.nyc.gov/l/lot/1/1016/36,True,MTGE,2013-02-14T00:00:00.000,130852585.65,76.0,59.84,2013000116613,OF,1515 BROADWAY
1007840019.00000000,225 WEST 34 STREET,461386,1924,1925,0,1925,22,585960.22,26634.56,14 SO. WILLIAMSPORT HOLDINGS LLC,,40.7518637,-73.9917095,5,105,3,Council District 3,False,False,True,https://zola.planning.nyc.gov/l/lot/1/784/19,True,MTGE,2014-03-21T00:00:00.000,130000000,281.76,221.86,2014000106722,OF,225 WEST 34 STREET
1007860023.00000000,229 WEST 36 STREET,130000,1921,1964,2008,2008,12,165100.0,13758.33,CA 36TH STREET HOLDINGS LLC,,40.7530137,-73.9908612,5,105,3,Council District 3,False,False,True,https://zola.planning.nyc.gov/l/lot/1/786/23,True,DEED,2025-05-22T00:00:00.000,19250000,148.08,116.6,2025000148595,CR,229 WEST 36 STREET
1007860001.00000000,520 8 AVENUE,754487,1926,1962,0,1962,24,958198.49,39924.94,NEW 520 GSH LLC,,40.7535737,-73.9918826,5,105,3,Council District 3,False,False,True,https://zola.planning.nyc.gov/l/lot/1/786/1,True,MTGE,2022-04-11T00:00:00.000,2623855.45,3.48,2.74,2022000181663,OF,520 8 AVENUE
1007870044.00000000,512 7 AVENUE,553748,1930,1985,2000,2000,45,703259.96,15628.0,500 SEVENTH AVENUE,,40.7534500,-73.9892766,5,105,3,Council District 3,False,False,True,https://zola.planning.nyc.gov/l/lot/1/787/44,True,MTGE,2018-05-30T00:00:00.000,483026980,872.29,686.84,2018000203292,CR,512 7 AVENUE
1007840068.00000000,248 WEST 35 STREET,133948,1925,0,0,0,16,170113.96,10632.12,248 WEST 35TH STREET LLC,,40.7522562,-73.9921282,5,105,3,Council District 3,False,False,True,https://zola.planning.nyc.gov/l/lot/1/784/68,True,MTGE,2017-07-18T00:00:00.000,14224451.74,106.19,83.62,2017000267664,CR,248 WEST 35 STREET
1007870011.00000000,247 WEST 37 STREET,214130,1924,0,0,0,18,271945.1,15108.06,"247 WEST 37TH ST. ASSOCIATES,",,40.7539771,-73.9912220,5,105,3,Council District 3,False,False,True,https://zola.planning.nyc.gov/l/lot/1/787/11,False,,,,0.0,0.0,,,247 WEST 37 STREET
1007840071.00000000,254 WEST 35 STREET,106642,1924,0,0,0,16,135435.34,8464.71,CS MIDTOWN 35 LLC,,40.7523551,-73.9923664,6,105,3,Council District 3,False,False,True,https://zola.planning.nyc.gov/l/lot/1/784/71,True,MTGE,2024-11-20T00:00:00.000,5122217.08,48.03,37.82,2024000313072,CR,254 WEST 35 STREET
1007850025.00000000,225 WEST 35 STREET,106810,1924,1987,0,1987,16,135648.7,8478.04,225 W.35TH ST.ASSOC.,,40.7522781,-73.9910273,5,105,3,Council District 3,False,False,True,https://zola.planning.nyc.gov/l/lot/1/785/25,True,MTGE,2021-11-04T00:00:00.000,3000000.00,28.09,22.12,2021000456665,CR,225 WEST 35 STREET
1007860068.00000000,240 WEST 37 STREET,130766,1904,1929,0,1929,10,166072.82,16607.28,FPP TIC LLC,,40.7534117,-73.9910488,5,105,3,Council District 3,False,False,True,https://zola.planning.nyc.gov/l/lot/1/786/68,True,MTGE,2021-04-14T00:00:00.000,24938458.16,190.71,150.17,2021000155002,CR,240 WEST 37 STREET
1008130016.00000000,1375 BROADWAY,464951,1927,0,0,0,27,590487.77,21869.92,1375 OWNER LLC,,40.7525660,-73.9878944,5,105,3,Council District 3,False,False,True,https://zola.planning.nyc.gov/l/lot/1/813/16,True,DEED,2024-12-19T00:00:00.000,170403750,366.5,288.58,2024000339887,OF,1375 BROADWAY
1008130001.00000000,501 7 AVENUE,433330,1923,1989,0,1989,17,550329.1,32372.3,"ESRT 501 SEVENTH AVENUE, L.L.C.",,40.7528543,-73.9885657,5,105,3,Council District 3,False,False,True,https://zola.planning.nyc.gov/l/lot/1/813/1,True,DEED,2013-10-07T00:00:00.000,95555929,220.52,173.63,2013000426358,OF,501 7 AVENUE
1008120063.00000000,134 WEST 37 STREET,120000,1914,1988,0,1988,12,152400.0,12700.0,134 WEST 37TH STREET,,40.7523465,-73.9885333,5,105,3,Council District 3,False,False,True,https://zola.planning.nyc.gov/l/lot/1/812/63,False,,,,0.0,0.0,,,134 WEST 37 STREET
1008120006.00000000,491 7 AVENUE,180704,1925,1986,0,1986,25,229494.08,9179.76,499 FASHION TOWER LLC,,40.7525881,-73.9891071,5,105,3,Council District 3,False,False,True,https://zola.planning.nyc.gov/l/lot/1/812/6,True,MTGE,2004-11-01T00:00:00.000,7275317.68,40.26,31.7,2005000055318,AP,491 7 AVENUE
1007860076.00000000,252 WEST 37 STREET,139629,1924,0,0,0,17,177328.83,10431.11,SHEVA 7 LLC,,40.7535737,-73.9914386,5,105,3,Council District 3,False,False,True,https://zola.planning.nyc.gov/l/lot/1/786/76,True,MTGE,2013-12-31T00:00:00.000,9493606.59,67.99,53.54,2014000020456,CR,252 WEST 37 STREET
1007850007.00000000,261 WEST 35 STREET,114368,1924,1989,0,1989,16,145247.36,9077.96,35TH ST OWNERS CORP,,40.7527997,-73.9922761,5,105,3,Council District 3,False,False,True,https://zola.planning.nyc.gov/l/lot/1/785/7,True,MTGE,2016-10-21T00:00:00.000,7000000,61.21,48.19,2016000389453,CR,261 WEST 35 STREET
1007850001.00000000,500 8 AVENUE,243350,1922,1965,0,1965,12,309054.5,25754.54,500 EIGHTH AVENUE LIMITED LIABILITY COMP ANY,P,40.7530111,-73.9924349,5,105,3,Council District 3,False,False,True,https://zola.planning.nyc.gov/l/lot/1/785/1,True,MTGE,2018-05-21T00:00:00.000,10000000,41.09,32.36,2018000174996,OF,500 8 AVENUE
1007870040.00000000,500 7 AVENUE,606078,1921,1972,2000,2000,17,769719.06,45277.59,500 SEVENTH AVENUE,,40.7534308,-73.9896953,5,105,3,Council District 3,False,False,True,https://zola.planning.nyc.gov/l/lot/1/787/40,True,MTGE,2018-05-30T00:00:00.000,483026980,796.97,627.54,2018000203292,CR,500 7 AVENUE
1007860051.00000000,498 7 AVENUE,803800,1920,1998,0,1998,24,1020826.0,42534.42,498 SEVENTH LLC,,40.7528489,-73.9900275,5,105,3,Council District 3,False,False,True,https://zola.planning.nyc.gov/l/lot/1/786/51,True,MTGE,2020-05-01T00:00:00.000,218313088.85,271.6,213.86,2020000141781,CR,498 7 AVENUE
1007850011.00000000,253 WEST 35 STREET,132118,1924,0,0,0,16,167789.86,10486.87,BALBO REALTY LLC,,40.7526871,-73.9920090,5,105,3,Council District 3,False,False,True,https://zola.planning.nyc.gov/l/lot/1/785/11,True,MTGE,,14062.26,0.11,0.08,,PA,253 WEST 35 STREET
1007860013.00000000,255 WEST 36 STREET,112578,1923,0,0,0,14,142974.06,10212.43,MANCHESTER WEST 36 LLC,,40.7532662,-73.9914675,5,105,3,Council District 3,False,False,True,https://zola.planning.nyc.gov/l/lot/1/786/13,True,MTGE,2022-03-14T00:00:00.000,2577000.74,22.89,18.02,2022000118735,CR,255 WEST 36 STREET
1007850067.00000000,242 WEST 36 STREET,152667,1922,1962,0,1962,13,193887.09,14914.39,KAUFMAN WALES ASSOC,,40.7528216,-73.9915723,5,105,3,Council District 3,False,False,True,https://zola.planning.nyc.gov/l/lot/1/785/67,True,MTGE,2025-05-20T00:00:00.000,1746517.93,11.44,9.01,2025000143218,CR,242 WEST 36 STREET
1007870025.00000000,225 WEST 37 STREET,163103,1923,0,0,0,16,207140.81,12946.3,JLJ BRICKEN LLC,,40.7536449,-73.9904244,5,105,3,Council District 3,False,False,True,https://zola.planning.nyc.gov/l/lot/1/787/25,True,MTGE,2013-12-05T00:00:00.000,25000000,153.28,120.69,2013000520932,OF,225 WEST 37 STREET
1007840077.00000000,494 8 AVENUE,111274,1928,1965,0,1965,23,141317.98,6144.26,494 EIGHTH AVENUE LLC,,40.7525966,-73.9927634,5,105,3,Council District 3,False,False,True,https://zola.planning.nyc.gov/l/lot/1/784/77,True,MTGE,2020-03-13T00:00:00.000,18000000.00,161.76,127.37,2020000100860,CR,494 8 AVENUE
1008120022.00000000,1359 BROADWAY,397978,1924,0,0,0,21,505432.06,24068.19,"ESRT 1359 BROADWAY, L.L.C.",,40.7518551,-73.9879595,5,105,3,Council District 3,False,False,True,https://zola.planning.nyc.gov/l/lot/1/812/22,True,DEED,2013-10-07T00:00:00.000,160317129,402.83,317.19,2013000432784,OF,1359 BROADWAY
1008110051.00000000,132 WEST 36 STREET,187350,1922,0,0,0,12,237934.5,19827.88,KAUFMAN ARCADE OWNER LLC,,40.7514600,-73.9886886,5,105,3,Council District 3,False,False,True,https://zola.planning.nyc.gov/l/lot/1/811/51,True,MTGE,2021-03-30T00:00:00.000,2000000.00,10.68,8.41,2022000152474,CR,132 WEST 36 STREET
1008130055.00000000,1385 BROADWAY,438643,1926,0,0,0,23,557076.61,24220.72,"B. BROS. BROADWAY REALTY, LLC",,40.7528624,-73.9878366,5,105,3,Council District 3,False,False,True,https://zola.planning.nyc.gov/l/lot/1/813/55,True,MTGE,2015-12-23T00:00:00.000,5949371.37,13.56,10.68,2015000461211,OF,1385 BROADWAY
1008110001.00000000,463 7 AVENUE,408511,1925,0,0,0,22,518808.97,23582.23,"ARSENAL COMPANY,",,40.7516494,-73.9895332,5,105,3,Council District 3,False,False,True,https://zola.planning.nyc.gov/l/lot/1/811/1,True,MTGE,2020-03-17T00:00:00.000,10000000.00,24.48,19.27,2020000113530,OF,463 7 AVENUE
1008100001.00000000,441 7 AVENUE,2192088,1930,2013,0,2013,19,2783951.76,146523.78,MACY'S EAST INC,,40.7508122,-73.9891038,5,105,3,Council District 3,False,False,True,https://zola.planning.nyc.gov/l/lot/1/810/1,True,MTGE,,357465253,163.07,128.4,,PA,441 7 AVENUE
1007080031.00000000,469 10 AVENUE,241508,1915,2023,0,2023,14,306715.16,21908.23,530 ADLER REALTY,,40.7562419,-73.9985057,5,104,3,"Hell's Kitchen, Community Board 4, Council District 3",True,True,True,https://zola.planning.nyc.gov/l/lot/1/708/31,True,MTGE,2021-07-02T00:00:00.000,3338677,13.82,10.89,2021000281926,CR,469 10 AVENUE
1007600043.00000000,531 8 AVENUE,137003,1927,1998,0,1998,20,173993.81,8699.69,535 EIGHTH AVENUE LLC,,40.7540019,-73.9925466,5,104,3,"Hell's Kitchen, Community Board 4, Council District 3",True,True,True,https://zola.planning.nyc.gov/l/lot/1/760/43,True,MTGE,2012-08-01T00:00:00.000,13119785.5,95.76,75.4,2012000322328,OF,531 8 AVENUE
1007590037.00000000,501 8 AVENUE,266912,1930,0,0,0,25,338978.24,13559.13,505 8TH CORP,,40.7531840,-73.9932325,5,104,3,"Hell's Kitchen, Community Board 4, Council District 3",True,True,True,https://zola.planning.nyc.gov/l/lot/1/759/37,True,MTGE,,3820000,14.31,11.27,,PA,501 8 AVENUE
1007600055.00000000,320 WEST 37 STREET,100244,1927,1989,0,1989,15,127309.88,8487.33,320 W 37 LLC,,40.7543890,-73.9933623,5,104,3,"Hell's Kitchen, Community Board 4, Council District 3",True,True,True,https://zola.planning.nyc.gov/l/lot/1/760/55,True,MTGE,2016-03-24T00:00:00.000,41700000,415.98,327.55,2016000108595,CR,320 WEST 37 STREET
1007600021.00000000,329 WEST 36 STREET,115763,1924,0,0,0,12,147019.01,12251.58,327 W 36 STREET LLC,,40.7542271,-73.9937269,6,104,3,"Hell's Kitchen, Community Board 4, Council District 3",True,True,True,https://zola.planning.nyc.gov/l/lot/1/760/21,True,MTGE,2015-07-02T00:00:00.000,2407986.12,20.8,16.38,2015000282470,CR,329 WEST 36 STREET
1007580037.00000000,481 8 AVENUE,1300727,1929,1990,2015,2015,42,1651923.29,39331.51,THE HOLY SPIRIT ASSOCIATION FOR THE UNIF ICATION OF WORLD CHRISTIANITY,,40.7527229,-73.9936440,5,104,3,"Hell's Kitchen, Community Board 4, Council District 3",True,True,True,https://zola.planning.nyc.gov/l/lot/1/758/37,True,DEED,2021-09-15T00:00:00.000,400000000.00,307.52,242.14,2023000239720,RS,481 8 AVENUE
1007570031.00000000,461 8 AVENUE,611625,1917,1983,0,1983,24,776763.75,32365.16,5 PENN PLAZA LLC,,40.7519874,-73.9940664,5,104,3,"Community Board 4, Council District 3",False,True,True,https://zola.planning.nyc.gov/l/lot/1/757/31,True,MTGE,2007-04-02T00:00:00.000,111085492.72,181.62,143.01,2007000180511,OF,461 8 AVENUE
1007280060.00000000,442 WEST 31 STREET,112146,1918,1999,2016,2016,12,142425.42,11868.79,450 WEST 31ST OWNRSCP,,40.7521440,-73.9998592,5,104,3,"Community Board 4, Council District 3",False,True,True,https://zola.planning.nyc.gov/l/lot/1/728/60,True,MTGE,2022-09-28T00:00:00.000,2099000.00,18.72,14.74,2022000386559,CR,442 WEST 31 STREET
1007750058.00000000,226 WEST 26 STREET,103873,1928,1983,0,1983,10,131918.71,13191.87,"226 WEST 26TH STREET,    .",,40.7463552,-73.9956873,5,104,3,"Community Board 4, Council District 3",False,True,True,https://zola.planning.nyc.gov/l/lot/1/775/58,True,MTGE,2017-06-02T00:00:00.000,5018150.99,48.31,38.04,2017000216836,CR,226 WEST 26 STREET
1005960092.00000000,319 SPRING STREET,479500,1949,1990,0,1990,3,608965.0,202988.33,UNITED PARCEL SERVICE INC,,40.7274738,-74.0092435,6,102,3,Council District 3,False,False,True,https://zola.planning.nyc.gov/l/lot/1/596/92,True,MTGE,,10000000,20.86,16.42,,PA,319 SPRING STREET
1005970012.00000000,78 VANDAM STREET,374584,1907,2016,2015,2016,10,475721.68,47572.17,315 HUDSON LLC  C/O J,P,40.7262744,-74.0079878,5,102,3,Council District 3,False,False,True,https://zola.planning.nyc.gov/l/lot/1/597/12,True,MTGE,2019-05-23T00:00:00.000,65000000.00,173.53,136.63,2019000168714,CR,78 VANDAM STREET
1007890075.00000000,264 WEST 40 STREET,116100,1927,1989,0,1989,20,147447.0,7372.35,RENAISSANCE MIDTOWN WEST LLC,,40.7555553,-73.9903736,5,105,3,Council District 3,False,False,True,https://zola.planning.nyc.gov/l/lot/1/789/75,True,MTGE,2016-09-29T00:00:00.000,12759718.07,109.9,86.54,2016000346167,CR,264 WEST 40 STREET
1010427501.00000000,851 8 AVENUE,264932,1962,0,0,0,11,336463.64,30587.6,UNAVAILABLE OWNER,,40.7633609,-73.9858132,5,104,3,"Hell's Kitchen, Community Board 4, Council District 3",True,True,True,https://zola.planning.nyc.gov/l/lot/1/1042/7501,False,,,,0.0,0.0,,,851 8 AVENUE
1010240038.00000000,1680 BROADWAY,701095,1969,0,0,0,41,890390.65,21716.85,SLG 810 SEVENTH LESSEE LLC,,40.7629130,-73.9825247,5,105,3,Council District 3,False,False,True,https://zola.planning.nyc.gov/l/lot/1/1024/38,True,MTGE,2007-01-25T00:00:00.000,108568022,154.85,121.93,2007000219890,CR,1680 BROADWAY
1010230029.00000000,1652 BROADWAY,461591,1963,0,0,0,22,586220.57,26646.39,"MTS NY PROPCO, L.P.",,40.7622077,-73.9830086,5,105,3,Council District 3,False,False,True,https://zola.planning.nyc.gov/l/lot/1/1023/29,True,MTGE,2018-07-12T00:00:00.000,15000000,32.5,25.59,2018000240851,CR,1652 BROADWAY
1007557501.00000000,441 8TH AVENUE,1094973,1934,0,0,0,5,1390615.71,278123.14,NEW YORK STATE URBAN DEVELOPMENT CORPORA TION D/B/A/ EMPIRE STATE DEVEL,X,40.7515181,-73.9958385,5,104,3,"Community Board 4, Council District 3",False,True,True,https://zola.planning.nyc.gov/l/lot/1/755/7501,False,,,,0.0,0.0,,,441 8TH AVENUE
1008490070.00000000,915 BROADWAY,215740,1926,1982,2012,2012,20,273989.8,13699.49,915 BROADWAY ASSOCIATES LLC,,40.7398223,-73.9899897,5,105,3,Council District 3,False,False,True,https://zola.planning.nyc.gov/l/lot/1/849/70,True,MTGE,2016-09-15T00:00:00.000,40000000,185.41,145.99,2016000325154,OF,915 BROADWAY
1008470062.00000000,881 BROADWAY,276481,1896,0,0,0,7,351130.87,50161.55,BJW REALTY LLC,,40.7385488,-73.9907549,5,105,3,Council District 3,False,False,True,https://zola.planning.nyc.gov/l/lot/1/847/62,True,MTGE,2020-01-22T00:00:00.000,187588200,678.48,534.24,2020000037395,CR,881 BROADWAY
1008220070.00000000,54 WEST 21 STREET,142532,1910,1985,0,1985,12,181015.64,15084.64,5421 EQUITIES COMPANY,,40.7411620,-73.9932373,5,105,3,Council District 3,False,False,True,https://zola.planning.nyc.gov/l/lot/1/822/70,True,MTGE,2011-06-29T00:00:00.000,8337310.73,58.49,46.06,2011000276714,OT,54 WEST 21 STREET
1008190039.00000000,122 5TH AVENUE,244069,1900,1987,2021,2021,11,309967.63,28178.88,122 FIFTH ASSOC,,40.7384090,-73.9925484,5,105,3,Council District 3,False,False,True,https://zola.planning.nyc.gov/l/lot/1/819/39,True,MTGE,2021-11-19T00:00:00.000,87600000,358.91,282.61,2021000485920,CR,122 5TH AVENUE
1008220015.00000000,27 WEST 20 STREET,100800,1908,0,0,0,12,128016.0,10668.0,27 SWEST STREET LLC,,40.7406460,-73.9926961,5,105,3,Council District 3,False,False,True,https://zola.planning.nyc.gov/l/lot/1/822/15,False,,,,0.0,0.0,,,27 WEST 20 STREET
1008210032.00000000,11 WEST 19 STREET,224320,1904,1987,0,1987,11,284886.4,25898.76,11 WEST 19TH ASSOCIATES LLC,,40.7398198,-73.9922379,5,105,3,Council District 3,False,False,True,https://zola.planning.nyc.gov/l/lot/1/821/32,True,MTGE,2010-11-23T00:00:00.000,5609375,25.01,19.69,2010000406528,OF,11 WEST 19 STREET
1008290050.00000000,1164 BROADWAY,112608,1903,1983,2008,2008,12,143012.16,11917.68,1164-1172 BROADWAY GROUND OWNER LLC,,40.7449027,-73.9884877,5,105,3,Council District 3,False,False,True,https://zola.planning.nyc.gov/l/lot/1/829/50,True,DEED,2021-10-14T00:00:00.000,77456250.00,687.84,541.61,2021000426462,CR,1164 BROADWAY
1008270049.00000000,1129 BROADWAY,183168,1896,0,0,0,16,232623.36,14538.96,1133 ST. JAMES LLC,,40.7436787,-73.9893756,5,105,3,Council District 3,False,False,True,https://zola.planning.nyc.gov/l/lot/1/827/49,True,MTGE,2017-12-28T00:00:00.000,17673585,96.49,75.98,2018000003380,OF,1129 BROADWAY
1008280035.00000000,218 5 AVENUE,150888,1912,2020,2017,2020,19,191627.76,10085.67,"CROISIC FEE OWNER II, LLC",,40.7437280,-73.9884554,5,105,3,Council District 3,False,False,True,https://zola.planning.nyc.gov/l/lot/1/828/35,True,MTGE,2025-02-26T00:00:00.000,80000000,530.19,417.48,2025000084253,CR,218 5 AVENUE
1008250012.00000000,49 WEST 23 STREET,337000,1916,0,0,0,12,427990.0,35665.83,23 R.P. ASSOCIATES LLC,,40.7427621,-73.9913714,5,105,3,Council District 3,False,False,True,https://zola.planning.nyc.gov/l/lot/1/825/12,True,DEED,2021-06-07T00:00:00.000,7615091,22.6,17.79,2021000240849,CR,49 WEST 23 STREET
1008260065.00000000,40 WEST 25 STREET,128965,1913,2012,0,2012,12,163785.55,13648.8,40 W 25 LLC,,40.7435992,-73.9910682,5,105,3,Council District 3,False,False,True,https://zola.planning.nyc.gov/l/lot/1/826/65,True,MTGE,2019-12-18T00:00:00.000,50000000.00,387.7,305.28,2019000419378,CR,40 WEST 25 STREET
1008230029.00000000,15 WEST 21 STREET,137007,1910,1988,1989,1989,12,173998.89,14499.91,MEYSAR REALTY CORP,,40.7410411,-73.9914294,5,105,3,Council District 3,False,False,True,https://zola.planning.nyc.gov/l/lot/1/823/29,True,MTGE,2015-05-11T00:00:00.000,4500000,32.85,25.86,2015000208299,OF,15 WEST 21 STREET
1008240015.00000000,37 WEST 22 STREET,284930,1906,2011,2015,2015,13,361861.1,27835.47,50 WEST 23RD STREET A LLC,P,40.7420348,-73.9919525,5,105,3,Council District 3,False,False,True,https://zola.planning.nyc.gov/l/lot/1/824/15,True,DEED,2010-11-12T00:00:00.000,129500000,454.5,357.87,2010000396050,CR,37 WEST 22 STREET
1008260057.00000000,24 WEST 25 STREET,114807,1911,2013,2019,2019,12,145804.89,12150.41,"24 WEST 25TH STREET PROPERTY INVESTORS I V, LLC",,40.7433302,-73.9904295,5,105,3,Council District 3,False,False,True,https://zola.planning.nyc.gov/l/lot/1/826/57,True,MTGE,2019-08-08T00:00:00.000,50920000.00,443.53,349.23,2019000260304,CR,24 WEST 25 STREET
1008240028.00000000,40 WEST 23 STREET,439330,1911,1982,2012,2012,12,557949.1,46495.76,23RD STREET LLC,,40.7417493,-73.9912561,5,105,3,Council District 3,False,False,True,https://zola.planning.nyc.gov/l/lot/1/824/28,True,MTGE,2010-11-01T00:00:00.000,9178883.63,20.89,16.45,2010000375244,CR,40 WEST 23 STREET
1008260046.00000000,1115 BROADWAY,259749,1914,2012,0,2012,12,329881.23,27490.1,16 MADISON SQUARE WEST LLC,,40.7430117,-73.9897908,5,105,3,Council District 3,False,False,True,https://zola.planning.nyc.gov/l/lot/1/826/46,True,MTGE,2023-08-14T00:00:00.000,48000000.00,184.79,145.51,2023000215502,CR,1115 BROADWAY
1008300062.00000000,1195 BROADWAY,107030,1930,1987,0,1987,10,135928.1,13592.81,1201 BROADWAY LLC,,40.7459293,-73.9889422,5,105,3,Council District 3,False,False,True,https://zola.planning.nyc.gov/l/lot/1/830/62,True,MTGE,2015-10-01T00:00:00.000,15182670.53,141.85,111.7,2015000358310,CR,1195 BROADWAY
1008320001.00000000,856 AVENUE OF THE AMER,187973,1900,0,0,0,16,238725.71,14920.36,1239 OPERATING LLC,,40.7472111,-73.9889167,5,105,3,Council District 3,False,False,True,https://zola.planning.nyc.gov/l/lot/1/832/1,True,MTGE,2019-06-11T00:00:00.000,40000000.00,212.8,167.56,2019000196164,CR,856 AVENUE OF THE AMER
1008330006.00000000,1255 BROADWAY,120882,1909,1987,0,1987,11,153520.14,13956.38,1255-1261 BROADWAY LLC,,40.7478808,-73.9886243,5,105,3,Council District 3,False,False,True,https://zola.planning.nyc.gov/l/lot/1/833/6,True,MTGE,2013-06-28T00:00:00.000,11774543.12,97.41,76.7,2013000309745,OF,1255 BROADWAY
1008330018.00000000,39 WEST 31 STREET,132844,1915,1986,0,1986,16,168711.88,10544.49,ROOSEVELT LEE 38 LLC,,40.7476062,-73.9875633,5,105,3,Council District 3,False,False,True,https://zola.planning.nyc.gov/l/lot/1/833/18,True,MTGE,2017-02-08T00:00:00.000,15796752.98,118.91,93.63,2017000068267,OF,39 WEST 31 STREET
1008330057.00000000,22 WEST 32 STREET,113000,1913,2013,0,2013,16,143510.0,8969.38,MONTAGUE LEE 32 LLC,,40.7475156,-73.9869389,5,105,3,Council District 3,False,False,True,https://zola.planning.nyc.gov/l/lot/1/833/57,True,MTGE,2018-09-25T00:00:00.000,6884326.34,60.92,47.97,2018000327143,CR,22 WEST 32 STREET
1008330011.00000000,1240 BROADWAY,671734,1969,2014,0,2014,39,853102.18,21874.41,1250 BROADWAY ASSOCIATES LLC,,40.7477737,-73.9878736,5,105,3,Council District 3,False,False,True,https://zola.planning.nyc.gov/l/lot/1/833/11,True,MTGE,2019-03-22T00:00:00.000,25132786.00,37.41,29.46,2019000099101,CR,1240 BROADWAY
1007670015.00000000,245 WEST 17 STREET,118945,1909,1985,2013,2013,12,151060.15,12588.35,245 - 249 WEST 17 STREET,,40.7414257,-73.9996536,5,104,3,"Community Board 4, Council District 3",False,True,True,https://zola.planning.nyc.gov/l/lot/1/767/15,True,DEED,2017-10-11T00:00:00.000,339400000,2853.42,2246.79,2017000383762,CR,245 WEST 17 STREET
1007670054.00000000,218 WEST 18 STREET,167210,1912,1984,2008,2008,12,212356.7,17696.39,218 W 18TH STREET GORP PROPERTY LLC,,40.7412830,-73.9990690,5,104,3,"Community Board 4, Council District 3",False,True,True,https://zola.planning.nyc.gov/l/lot/1/767/54,True,DEED,2021-12-03T00:00:00.000,170000000.00,1016.69,800.54,2021000501673,OF,218 WEST 18 STREET
1007640001.00000000,80 8 AVENUE,185198,1930,0,0,0,20,235201.46,11760.07,THE BET ELI COMPANY DELAWARE LLC,,40.7398584,-74.0020533,5,104,3,"Community Board 4, Council District 3",False,True,True,https://zola.planning.nyc.gov/l/lot/1/764/1,True,MTGE,2015-06-29T00:00:00.000,16000000,86.39,68.03,2015000286461,OF,80 8 AVENUE
1007670012.00000000,249 WEST 17 STREET,108768,1902,2012,0,2012,6,138135.36,23022.56,249 WEST 17TH STREET PROPERTY INVESTORS II LLC,,40.7415245,-73.9998881,5,104,3,"Community Board 4, Council District 3",False,True,True,https://zola.planning.nyc.gov/l/lot/1/767/12,True,DEED,2017-10-11T00:00:00.000,339400000,3120.4,2457.01,2017000383762,CR,249 WEST 17 STREET
1007120046.00000000,422 WEST 15 STREET,111300,1950,0,0,0,7,141351.0,20193.0,BRK GARAGE CO,,40.7420266,-74.0063874,5,104,3,"Community Board 4, Council District 3",False,True,True,https://zola.planning.nyc.gov/l/lot/1/712/46,False,,,,0.0,0.0,,,422 WEST 15 STREET
1007400001.00000000,363 WEST 16 STREET,110286,1969,1989,2012,2012,12,140063.22,11671.93,MARKET CORNER REALTYASSOCIATES,,40.7424385,-74.0038758,5,104,3,"Community Board 4, Council District 3",False,True,True,https://zola.planning.nyc.gov/l/lot/1/740/1,True,MTGE,2024-12-04T00:00:00.000,1000000,9.07,7.14,2024000336409,OT,363 WEST 16 STREET
1007390001.00000000,111 8 AVENUE,2161994,1931,1988,0,1988,17,2745732.38,161513.67,ONE CITY BLOCK LLC,,40.7413598,-74.0032081,5,104,3,"Community Board 4, Council District 3",False,True,True,https://zola.planning.nyc.gov/l/lot/1/739/1,True,DEED,2010-12-22T00:00:00.000,1770000000,818.69,644.64,2010000430882,OF,111 8 AVENUE
1007780020.00000000,239 WEST 28 STREET,156500,1917,0,0,0,12,198755.0,16562.92,LEXIN CAXTON LLC,,40.7480542,-73.9947597,5,105,3,Council District 3,False,False,True,https://zola.planning.nyc.gov/l/lot/1/778/20,True,DEED,2024-01-18T00:00:00.000,35150000,224.6,176.85,2024000026814,CR,239 WEST 28 STREET
1007760001.00000000,322 8 AVENUE,173491,1925,1985,0,1985,21,220333.57,10492.07,"322 PARTNERS,",,40.7472089,-73.9966292,5,105,3,"Community Board 4, Council District 3",False,True,True,https://zola.planning.nyc.gov/l/lot/1/776/1,True,MTGE,2015-04-29T00:00:00.000,27242000,157.02,123.64,2015000190143,OF,322 8 AVENUE
1007790017.00000000,231 WEST 29 STREET,144323,1927,0,0,0,15,183290.21,12219.35,JR BUILDING ASSOCIATES,,40.7486552,-73.9942363,5,105,3,Council District 3,False,False,True,https://zola.planning.nyc.gov/l/lot/1/779/17,True,MTGE,2014-12-19T00:00:00.000,8501000,58.9,46.38,2014000431150,CR,231 WEST 29 STREET
1007790039.00000000,350 7 AVENUE,143845,1927,0,0,0,21,182683.15,8699.2,HARDWELL ACQUISITION LLC,,40.7482407,-73.9931428,5,105,3,Council District 3,False,False,True,https://zola.planning.nyc.gov/l/lot/1/779/39,True,MTGE,2014-12-23T00:00:00.000,35000000,243.32,191.59,2015000021122,CR,350 7 AVENUE
1008030021.00000000,121 WEST 27 STREET,113129,1910,0,0,0,12,143673.83,11972.82,SIXTH AVENUE WEST ASSOCIATES LLC,,40.7460750,-73.9919376,5,105,3,Council District 3,False,False,True,https://zola.planning.nyc.gov/l/lot/1/803/21,True,MTGE,2017-09-19T00:00:00.000,16537716.26,146.18,115.11,2017000394419,CR,121 WEST 27 STREET
1008020056.00000000,122 WEST 27 STREET,117291,1912,0,0,0,12,148959.57,12413.3,NORTHERN STAR TEXTILE CORP,,40.7457402,-73.9923130,5,105,3,"Community Board 4, Council District 3",False,True,True,https://zola.planning.nyc.gov/l/lot/1/802/56,True,MTGE,2022-10-31T00:00:00.000,481099.29,4.1,3.23,2022000415413,OF,122 WEST 27 STREET
1008030067.00000000,150 WEST 28 STREET,123557,1927,1964,0,1964,18,156917.39,8717.63,150 WEST 28TH STREET LLC,,40.7467613,-73.9928181,5,105,3,Council District 3,False,False,True,https://zola.planning.nyc.gov/l/lot/1/803/67,True,MTGE,2002-06-18T00:00:00.000,7250000,58.68,46.2,2003000221022,OF,150 WEST 28 STREET
1008020008.00000000,151 WEST 26 STREET,179131,1911,1989,0,1989,12,227496.37,18958.03,ABNER PROPERTIES CO,,40.7458336,-73.9932766,5,105,3,"Community Board 4, Council District 3",False,True,True,https://zola.planning.nyc.gov/l/lot/1/802/8,False,,,,0.0,0.0,,,151 WEST 26 STREET
1007790057.00000000,224 WEST 30 STREET,142801,1925,1989,0,1989,14,181357.27,12954.09,"MB HAMPTONS, LLC",,40.7488419,-73.9939115,5,105,3,Council District 3,False,False,True,https://zola.planning.nyc.gov/l/lot/1/779/57,True,MTGE,2016-03-17T00:00:00.000,18500000,129.55,102.01,2016000113359,CR,224 WEST 30 STREET
1007790041.00000000,352 7 AVENUE,127488,1923,0,0,0,16,161909.76,10119.36,"352 ACQUISITION COMPANY,",,40.7485783,-73.9929695,5,105,3,Council District 3,False,False,True,https://zola.planning.nyc.gov/l/lot/1/779/41,True,MTGE,2019-01-15T00:00:00.000,11576406.04,90.8,71.5,2019000026028,CR,352 7 AVENUE
1008040001.00000000,319 7 AVENUE,410334,1920,1980,0,1980,21,521124.18,24815.44,333 SEVENTH LLC,P,40.7474090,-73.9928289,5,105,3,Council District 3,False,False,True,https://zola.planning.nyc.gov/l/lot/1/804/1,True,MTGE,2023-05-23T00:00:00.000,31490000,76.74,60.43,2023000141780,OF,319 7 AVENUE
1007780043.00000000,330 7 AVENUE,240534,1929,0,0,0,21,305478.18,14546.58,SUPER NOVA 330,,40.7477659,-73.9933738,5,105,3,Council District 3,False,False,True,https://zola.planning.nyc.gov/l/lot/1/778/43,True,MTGE,2005-08-03T00:00:00.000,27006562.74,112.28,88.41,2005000503073,OF,330 7 AVENUE
1008050003.00000000,345 7 AVENUE,190325,1928,0,0,0,25,241712.75,9668.51,345  7TH AVENUE REALTY OWNER LLC,,40.7480513,-73.9924138,5,105,3,Council District 3,False,False,True,https://zola.planning.nyc.gov/l/lot/1/805/3,True,DEED,2025-01-08T00:00:00.000,73000000,383.55,302.01,2025000015484,CR,345 7 AVENUE
1008050094.00000000,144 WEST 30 STREET,216841,1926,0,0,0,20,275388.07,13769.4,150 HABERN LLC,,40.7480348,-73.9919915,5,105,3,Council District 3,False,False,True,https://zola.planning.nyc.gov/l/lot/1/805/94,True,MTGE,2019-07-11T00:00:00.000,10000000.00,46.12,36.31,2019000243762,OF,144 WEST 30 STREET
1007780048.00000000,214 WEST 29 STREET,125042,1925,0,0,0,16,158803.34,9925.21,WALSAM NEW 29 LLC,,40.7480679,-73.9939981,5,105,3,Council District 3,False,False,True,https://zola.planning.nyc.gov/l/lot/1/778/48,True,MTGE,2019-06-27T00:00:00.000,14000000.00,111.96,88.16,2019000215218,OF,214 WEST 29 STREET
1008030004.00000000,307 7 AVENUE,197612,1926,0,0,0,23,250967.24,10911.62,TANGELO LLC,,40.7468354,-73.9931357,5,105,3,Council District 3,False,False,True,https://zola.planning.nyc.gov/l/lot/1/803/4,True,MTGE,2019-10-17T00:00:00.000,75000000.00,379.53,298.84,2019000414458,OF,307 7 AVENUE
1008040059.00000000,134 WEST 29 STREET,115991,1910,0,0,0,12,147308.57,12275.71,134 WEST 29TH ST OWN CORP,,40.7471345,-73.9917859,5,105,3,Council District 3,False,False,True,https://zola.planning.nyc.gov/l/lot/1/804/59,True,MTGE,,16500,0.14,0.11,,PA,134 WEST 29 STREET
1007790013.00000000,241 WEST 29 STREET,106960,1928,0,0,0,17,135839.2,7990.54,245 WEST 29 LLC,,40.7487870,-73.9945467,5,105,3,Council District 3,False,False,True,https://zola.planning.nyc.gov/l/lot/1/779/13,True,MTGE,2016-09-07T00:00:00.000,14708942.3,137.52,108.28,2016000335331,OF,241 WEST 29 STREET
1006720001.00000000,601 WEST 26 STREET,1835150,1931,2023,0,2023,19,2330640.5,122665.29,RXR SL OWNER LLC,,40.7515838,-74.0065544,5,104,3,"Community Board 4, Council District 3",False,True,True,https://zola.planning.nyc.gov/l/lot/1/672/1,True,MTGE,2020-04-06T00:00:00.000,50000000.00,27.25,21.45,2020000119479,OF,601 WEST 26 STREET
1006730001.00000000,261 11 AVENUE,1161731,1892,2020,2020,2020,14,1475398.37,105385.6,TERMINAL FEE OWNER LP,,40.7522371,-74.0061935,5,104,3,"Community Board 4, Council District 3",False,True,True,https://zola.planning.nyc.gov/l/lot/1/673/1,True,MTGE,2021-07-23T00:00:00.000,192730698,165.9,130.63,2021000316121,CR,261 11 AVENUE
1007010001.00000000,302 11 AVENUE,213330,1913,1986,0,1986,9,270929.1,30103.23,"SM I MMS, L.L.C.",,40.7526133,-74.0035913,6,104,3,"Community Board 4, Council District 3",False,True,True,https://zola.planning.nyc.gov/l/lot/1/701/1,True,MTGE,2021-12-16T00:00:00.000,200034541.16,937.68,738.33,2022000008008,CR,302 11 AVENUE
1007800010.00000000,251 WEST 30 STREET,104199,1927,2017,0,2017,16,132332.73,8270.8,251 WEST 30TH OWNER LLC,,40.7494704,-73.9942651,5,105,3,Council District 3,False,False,True,https://zola.planning.nyc.gov/l/lot/1/780/10,True,MTGE,2019-09-10T00:00:00.000,4222146.56,40.52,31.91,2019000295551,OT,251 WEST 30 STREET
1008060026.00000000,115 WEST 30 STREET,151525,1912,0,0,0,12,192436.75,16036.4,ONE FIFTEEN W ASSOCSLP,,40.7478590,-73.9905082,5,105,3,Council District 3,False,False,True,https://zola.planning.nyc.gov/l/lot/1/806/26,True,MTGE,2019-01-24T00:00:00.000,15000000.00,98.99,77.95,2019000032754,OF,115 WEST 30 STREET
1008070001.00000000,393 7 AVENUE,1103075,1926,0,0,0,26,1400905.25,53880.97,VORNADO ELEVEN PENN PLAZA OWNER LLC,,40.7491464,-73.9911721,5,105,3,Council District 3,False,False,True,https://zola.planning.nyc.gov/l/lot/1/807/1,True,MTGE,2020-10-15T00:00:00.000,50000000.00,45.33,35.69,2020000302405,CR,393 7 AVENUE
1008090053.00000000,112 WEST 34 STREET,806417,1954,2017,0,2017,25,1024149.59,40965.98,"ESRT 112 WEST 34TH STREET, L.P.",,40.7498159,-73.9890065,5,105,3,Council District 3,False,False,True,https://zola.planning.nyc.gov/l/lot/1/809/53,True,DEED,2014-07-15T00:00:00.000,26400000,32.74,25.78,2014000248556,CR,112 WEST 34 STREET
1010720010.00000000,543 WEST 43 STREET,156856,1920,0,0,0,7,199207.12,28458.16,"SM I MMS, L.L.C.",,40.7615145,-73.9969822,6,104,3,"Hell's Kitchen, Community Board 4, Council District 3",True,True,True,https://zola.planning.nyc.gov/l/lot/1/1072/10,True,MTGE,2021-12-16T00:00:00.000,1706011000.00,10876.29,8564.01,2022000008012,CR,543 WEST 43 STREET
1010750001.00000000,636 11 AVENUE,530130,1917,2007,0,2007,11,673265.1,61205.92,"PLAZA WEST ASSOCIATES, LLC",,40.7633946,-73.9955635,5,104,3,"Hell's Kitchen, Community Board 4, Council District 3",True,True,True,https://zola.planning.nyc.gov/l/lot/1/1075/1,True,MTGE,2018-05-11T00:00:00.000,47536195.97,89.67,70.61,2018000164599,CR,636 11 AVENUE
1010780023.00000000,501 WEST 49 STREET,159996,1959,1987,0,1987,8,203194.92,25399.37,"PICCADILLY HOTEL CO.,",,40.7645829,-73.9925527,5,104,3,"Hell's Kitchen, Community Board 4, Council District 3",True,True,True,https://zola.planning.nyc.gov/l/lot/1/1078/23,False,,,,0.0,0.0,,,501 WEST 49 STREET
1010980036.00000000,711 11 AVENUE,117975,1930,1982,2014,2014,5,149828.25,29965.65,"LTS 711 11TH AVENUE,",,40.7665263,-73.9948304,5,104,3,"Hell's Kitchen, Community Board 4, Council District 3",True,True,True,https://zola.planning.nyc.gov/l/lot/1/1098/36,True,MTGE,2018-05-31T00:00:00.000,64856.87,0.55,0.43,2018000216532,CR,711 11 AVENUE
1010990021.00000000,609 WEST 51 STREET,121638,1924,1987,2000,2000,7,154480.26,22068.61,PIANO DEVELOPMENT CORPORATION,,40.7671466,-73.9948051,5,104,3,"Hell's Kitchen, Community Board 4, Council District 3",True,True,True,https://zola.planning.nyc.gov/l/lot/1/1099/21,True,MTGE,2009-04-03T00:00:00.000,22000000,180.86,142.41,2009000112625,OF,609 WEST 51 STREET
1010980029.00000000,601 WEST 50 STREET,103788,1940,2023,0,2023,6,131810.76,21968.46,BCAL 707 PROPERTY LLC,,40.7662491,-73.9949279,5,104,3,"Hell's Kitchen, Community Board 4, Council District 3",True,True,True,https://zola.planning.nyc.gov/l/lot/1/1098/29,True,DEED,2022-02-22T00:00:00.000,95000000.00,915.33,720.73,2022000111333,CR,601 WEST 50 STREET
1010850001.00000000,530 WEST 57 STREET,490080,1937,2013,2007,2013,3,622401.6,207467.2,CBS BROADCASTING INC.,,40.7695260,-73.9906640,5,104,6,"Hell's Kitchen, Community Board 4",True,True,False,https://zola.planning.nyc.gov/l/lot/1/1085/1,True,DEED,2019-11-07T00:00:00.000,1.00,0.0,0.0,2019000386721,CR,530 WEST 57 STREET
1010840001.00000000,802 11 AVENUE,228000,1967,1986,2011,2011,6,289560.0,48260.0,"VW CREDIT, INC.",,40.7691226,-73.9916496,5,104,6,"Hell's Kitchen, Community Board 4",True,True,False,https://zola.planning.nyc.gov/l/lot/1/1084/1,True,DEED,2009-11-12T00:00:00.000,84350000,369.96,291.3,2009000387905,CR,802 11 AVENUE
1011020018.00000000,619 WEST 54 STREET,320116,1900,1989,2015,2015,10,406547.32,40654.73,SPITIP 619W54 PROPERTY OWNER LLC,,40.7691585,-73.9936822,5,104,6,"Hell's Kitchen, Community Board 4",True,True,False,https://zola.planning.nyc.gov/l/lot/1/1102/18,True,MTGE,2021-07-23T00:00:00.000,2364229.00,7.39,5.82,2021000297468,CR,619 WEST 54 STREET
1010850023.00000000,513 WEST 56 STREET,186100,1984,0,0,0,10,236347.0,23634.7,CBS BROADCASTING INC.,,40.7688645,-73.9895160,5,104,6,"Hell's Kitchen, Community Board 4",True,True,False,https://zola.planning.nyc.gov/l/lot/1/1085/23,True,DEED,2019-11-07T00:00:00.000,1.00,0.0,0.0,2019000386721,CR,513 WEST 56 STREET
1011020011.00000000,760 JOE DIMAGGIO HIGHWAY,152375,1930,1983,0,1983,6,193516.25,32252.71,760 12TH LLC,,40.7693753,-73.9941948,5,104,6,"Hell's Kitchen, Community Board 4",True,True,False,https://zola.planning.nyc.gov/l/lot/1/1102/11,True,MTGE,2006-09-20T00:00:00.000,18603295.12,122.09,96.13,2006000549833,OT,760 JOE DIMAGGIO HIGHWAY
1007620050.00000000,318 WEST 39 STREET,156508,1915,0,0,0,12,198765.16,16563.76,"QUADRI-PLANETARY ASSOCIATES,",,40.7556241,-73.9924634,5,104,3,"Hell's Kitchen, Community Board 4, Council District 3",True,True,True,https://zola.planning.nyc.gov/l/lot/1/762/50,True,MTGE,2015-07-09T00:00:00.000,12322369.66,78.73,61.99,2015000269457,CR,318 WEST 39 STREET
1010320048.00000000,330 WEST 42 STREET,552775,1931,2021,0,2021,33,702024.25,21273.46,DECO TOWERS ASSOCIATES LLC,,40.7575041,-73.9915825,5,104,3,"Hell's Kitchen, Community Board 4, Council District 3",True,True,True,https://zola.planning.nyc.gov/l/lot/1/1032/48,True,MTGE,2019-05-17T00:00:00.000,104211875,188.52,148.44,2019000178857,OF,330 WEST 42 STREET
1007630024.00000000,315 WEST 39 STREET,132684,1927,0,0,0,16,168508.68,10531.79,315 ASSOCIATES,,40.7559506,-73.9920664,5,104,3,"Hell's Kitchen, Community Board 4, Council District 3",True,True,True,https://zola.planning.nyc.gov/l/lot/1/763/24,True,MTGE,2019-09-12T00:00:00.000,5000000.00,37.68,29.67,2019000300758,CR,315 WEST 39 STREET
1007620033.00000000,575 8 AVENUE,224400,1925,0,0,0,23,284988.0,12390.78,PENNBUS REALTIES LLC,,40.7550311,-73.9918066,5,104,3,"Hell's Kitchen, Community Board 4, Council District 3",True,True,True,https://zola.planning.nyc.gov/l/lot/1/762/33,False,,,,0.0,0.0,,,575 8 AVENUE
1007620042.00000000,589 8 AVENUE,112700,1927,2001,0,2001,23,143129.0,6223.0,TOWER 39 ASSOCIATES,,40.7553358,-73.9915900,5,104,3,"Hell's Kitchen, Community Board 4, Council District 3",True,True,True,https://zola.planning.nyc.gov/l/lot/1/762/42,True,MTGE,2013-09-19T00:00:00.000,13700000,121.56,95.72,2013000408649,OF,589 8 AVENUE
1007620019.00000000,325 WEST 38 STREET,110188,1929,0,0,0,16,139938.76,8746.17,NINHURSAG PROPERTIES LLC,,40.7554127,-73.9927125,5,104,3,"Hell's Kitchen, Community Board 4, Council District 3",True,True,True,https://zola.planning.nyc.gov/l/lot/1/762/19,True,MTGE,2021-09-17T00:00:00.000,8694491.47,78.91,62.13,2021000396564,CR,325 WEST 38 STREET
1006270043.00000000,320 WEST 13 STREET,181550,1912,1986,0,1986,9,230568.5,25618.72,320 WEST 13TH REALTY LLC,,40.7390761,-74.0041282,5,102,3,Council District 3,False,False,True,https://zola.planning.nyc.gov/l/lot/1/627/43,True,MTGE,2018-06-28T00:00:00.000,2000000,11.02,8.67,2018000235267,CR,320 WEST 13 STREET
1006450029.00000000,416 WEST 13 STREET,144000,1902,2014,0,2014,3,182880.0,60960.0,"GREENWAY MEWS RELATY,",,40.7403413,-74.0071668,5,102,3,Council District 3,False,False,True,https://zola.planning.nyc.gov/l/lot/1/645/29,True,MTGE,,500000,3.47,2.73,,PA,416 WEST 13 STREET
1007720064.00000000,216 WEST 23 STREET,170750,1885,1989,2012,2012,12,216852.5,18071.04,CHELSEA HOTEL OWNER LLC,,40.7443104,-73.9968892,5,104,3,"Community Board 4, Council District 3",False,True,True,https://zola.planning.nyc.gov/l/lot/1/772/64,True,DEED,2016-10-28T00:00:00.000,92007576.72,538.84,424.29,2016000389768,CR,216 WEST 23 STREET
1007940030.00000000,615 AVENUE OF THE AMER,134235,1877,1987,0,1987,5,170478.45,34095.69,625 OWNERSHIP,,40.7403140,-73.9952005,5,104,3,"Community Board 4, Council District 3",False,True,True,https://zola.planning.nyc.gov/l/lot/1/794/30,True,MTGE,2021-01-28T00:00:00.000,15193644.38,113.19,89.12,2021000040075,OF,615 AVENUE OF THE AMER
1007950044.00000000,641 AVENUE OF THE AMER,149885,1902,0,0,0,8,190353.95,23794.24,"641 AOA OWNER, LLC",,40.7409837,-73.9947349,5,104,3,"Community Board 4, Council District 3",False,True,True,https://zola.planning.nyc.gov/l/lot/1/795/44,True,MTGE,2021-09-29T00:00:00.000,212089000,1415.01,1114.18,2021000413006,CR,641 AVENUE OF THE AMER
1007970037.00000000,675 AVENUE OF THE AMER,237000,1902,2014,1998,2014,6,300990.0,50165.0,675 OWNERSHIP LLC,,40.7421227,-73.9939879,5,104,3,"Community Board 4, Council District 3",False,True,True,https://zola.planning.nyc.gov/l/lot/1/797/37,True,MTGE,2019-05-16T00:00:00.000,29008922.64,122.4,96.38,2019000162200,CR,675 AVENUE OF THE AMER
1008180041.00000000,110 5 AVENUE,148940,1890,2012,1987,2012,11,189153.8,17195.8,110 FIFTH REALTY CORP.,,40.7376734,-73.9929274,5,105,3,Council District 3,False,False,True,https://zola.planning.nyc.gov/l/lot/1/818/41,True,MTGE,2019-04-17T00:00:00.000,14709160.58,98.76,77.76,2019000134831,CR,110 5 AVENUE
1008180051.00000000,114 5 AVENUE,351552,1909,1989,2012,2012,18,446471.04,24803.95,"114 FIFTH AVENUE ASSOCIATES, LLC",,40.7379204,-73.9927830,5,105,3,Council District 3,False,False,True,https://zola.planning.nyc.gov/l/lot/1/818/51,True,MTGE,2015-10-20T00:00:00.000,33149472.89,94.29,74.25,2015000387957,CR,114 5 AVENUE
1008180066.00000000,26 WEST 17 STREET,106770,1908,1981,0,1981,12,135597.9,11299.82,EDMAL REALTY CO. LLC,,40.7384036,-73.9939341,5,105,3,Council District 3,False,False,True,https://zola.planning.nyc.gov/l/lot/1/818/66,True,DEED,2020-12-15T00:00:00.000,33564375.00,314.36,247.53,2020000367069,CR,26 WEST 17 STREET
1008190010.00000000,47 WEST 17 STREET,179186,1907,0,0,0,12,227566.22,18963.85,44 WEST 18TH STREET LLC,,40.7392051,-73.9943851,5,105,3,Council District 3,False,False,True,https://zola.planning.nyc.gov/l/lot/1/819/10,True,DEED,2023-07-20T00:00:00.000,28128555.63,156.98,123.61,2023000186186,CR,47 WEST 17 STREET
1008190044.00000000,126 5 AVENUE,100621,1906,1980,0,1980,15,127788.67,8519.24,"126-8 FIFTH AVENUE, LLC",,40.7385050,-73.9922308,5,105,3,Council District 3,False,False,True,https://zola.planning.nyc.gov/l/lot/1/819/44,False,,,,0.0,0.0,,,126 5 AVENUE
1008190056.00000000,18 WEST 18 STREET,173152,1904,0,0,0,11,219903.04,19991.19,17-18 MANAGEMENT COMPANY,,40.7388015,-73.9934288,5,105,3,Council District 3,False,False,True,https://zola.planning.nyc.gov/l/lot/1/819/56,True,MTGE,2018-04-06T00:00:00.000,20500000,118.39,93.22,2018000123897,CR,18 WEST 18 STREET
1008200026.00000000,23 WEST 18 STREET,191400,1902,1987,0,1987,11,243078.0,22098.0,18-19TH ASSOCIATES,,40.7393614,-73.9929019,5,105,3,Council District 3,False,False,True,https://zola.planning.nyc.gov/l/lot/1/820/26,True,MTGE,2022-06-28T00:00:00.000,4000000.00,20.9,16.46,2022000297138,CR,23 WEST 18 STREET
1008200038.00000000,130 5 AVENUE,120000,1903,0,0,0,11,152400.0,13854.55,"ROC-FIFTH AVENUE ASSOCIATES,",,40.7388179,-73.9920467,5,105,3,Council District 3,False,False,True,https://zola.planning.nyc.gov/l/lot/1/820/38,True,MTGE,2022-07-27T00:00:00.000,25000000.00,208.33,164.04,2022000304618,CR,130 5 AVENUE
1008210014.00000000,39 WEST 19 STREET,107152,1910,2019,2014,2019,12,136083.04,11340.25,ABNER PROPERTIES CO,,40.7401602,-73.9933746,5,105,3,Council District 3,False,False,True,https://zola.planning.nyc.gov/l/lot/1/821/14,False,,,,0.0,0.0,,,39 WEST 19 STREET
1008210041.00000000,148 5 AVENUE,187536,1890,2019,2019,2019,11,238170.72,21651.88,150 5TH AVENUE OFFICE LLC,,40.7396743,-73.9915234,5,105,3,Council District 3,False,False,True,https://zola.planning.nyc.gov/l/lot/1/821/41,True,DEED,2007-11-01T00:00:00.000,155000000,826.51,650.79,2007000558312,CR,148 5 AVENUE
1008220009.00000000,37 WEST 20 STREET,105942,1910,0,0,0,12,134546.34,11212.19,37 WEST 20 COMPANY,,40.7408162,-73.9931002,5,105,3,Council District 3,False,False,True,https://zola.planning.nyc.gov/l/lot/1/822/9,True,MTGE,,755384.97,7.13,5.61,,PA,37 WEST 20 STREET
1008220031.00000000,154 5 AVENUE,184509,1895,1979,0,1979,13,234326.43,17357.51,156 5 AVE CORP,,40.7400448,-73.9912744,5,105,3,Council District 3,False,False,True,https://zola.planning.nyc.gov/l/lot/1/822/31,True,MTGE,,2138427.19,11.59,9.13,,PA,154 5 AVENUE
1008220054.00000000,22 WEST 21 STREET,101368,1908,2015,0,2015,12,128737.36,10728.11,21 BUILDING CORP,,40.7407063,-73.9921331,5,105,3,Council District 3,False,False,True,https://zola.planning.nyc.gov/l/lot/1/822/54,True,MTGE,,2150000,21.21,16.7,,PA,22 WEST 21 STREET
1008230055.00000000,20 WEST 22 STREET,169887,1911,1990,0,1990,16,215756.49,13484.78,ELK REALTY LLC,,40.7412744,-73.9915954,5,105,3,Council District 3,False,False,True,https://zola.planning.nyc.gov/l/lot/1/823/55,True,MTGE,2017-05-30T00:00:00.000,40000000,235.45,185.39,2017000204253,CR,20 WEST 22 STREET
1008250031.00000000,1097 BROADWAY,704950,1909,2012,2008,2012,15,895286.5,59685.77,200 FIFTH OWNER LLC,,40.7421554,-73.9898955,5,105,3,Council District 3,False,False,True,https://zola.planning.nyc.gov/l/lot/1/825/31,True,MTGE,2018-11-26T00:00:00.000,200000000,283.71,223.39,2018000395827,CR,1097 BROADWAY
1008270028.00000000,1121 BROADWAY,105667,1897,1987,0,1987,12,134197.09,11183.09,1123 TOWNSEND LLC,,40.7433767,-73.9894190,5,105,3,Council District 3,False,False,True,https://zola.planning.nyc.gov/l/lot/1/827/28,True,MTGE,2017-12-28T00:00:00.000,9253435.14,87.57,68.95,2018000003386,CR,1121 BROADWAY
1008280009.00000000,37 WEST 26 STREET,112259,1909,1986,0,1986,12,142568.93,11880.74,KIAMIE PRINCESS MARION REALTY CORP,,40.7446202,-73.9904148,5,105,3,Council District 3,False,False,True,https://zola.planning.nyc.gov/l/lot/1/828/9,True,MTGE,2016-11-29T00:00:00.000,18198985.06,162.12,127.65,2016000441489,CR,37 WEST 26 STREET
1008280033.00000000,1140 BROADWAY,128010,1916,1989,0,1989,16,162572.7,10160.79,1140 LLC,,40.7439256,-73.9887008,5,105,3,Council District 3,False,False,True,https://zola.planning.nyc.gov/l/lot/1/828/33,True,MTGE,2017-05-17T00:00:00.000,20191880.75,157.74,124.2,2017000191198,CR,1140 BROADWAY
1008280041.00000000,228 5 AVENUE,404245,1915,1989,0,1989,20,513391.15,25669.56,230 5 AVE ASSOC,,40.7441315,-73.9884409,5,105,3,Council District 3,False,False,True,https://zola.planning.nyc.gov/l/lot/1/828/41,True,MTGE,2022-08-18T00:00:00.000,8041007.40,19.89,15.66,2022000353200,CR,228 5 AVENUE
1008290016.00000000,31 WEST 27 STREET,106800,1909,2019,0,2019,12,135636.0,11303.0,"31 WEST 27TH STREET PROPERTY INVESTORS I V, LLC",,40.7450428,-73.9894909,5,105,3,Council District 3,False,False,True,https://zola.planning.nyc.gov/l/lot/1/829/16,True,MTGE,2019-08-29T00:00:00.000,19725000,184.69,145.43,2019000286331,CR,31 WEST 27 STREET
1008300054.00000000,1186 BROADWAY,185000,1904,1989,2008,2008,13,234950.0,18073.08,LGF ENTERPRISES,,40.7456630,-73.9882602,5,105,3,Council District 3,False,False,True,https://zola.planning.nyc.gov/l/lot/1/830/54,True,MTGE,2020-03-06T00:00:00.000,100000000.00,540.54,425.62,2020000088400,CR,1186 BROADWAY
1008320066.00000000,1226 BROADWAY,133394,1868,1986,0,1986,12,169410.38,14117.53,1234 BROADWAY LLC,,40.7471616,-73.9879892,5,105,3,Council District 3,False,False,True,https://zola.planning.nyc.gov/l/lot/1/832/66,True,DEED,2004-04-22T00:00:00.000,18950000,142.06,111.86,2004000317296,IB,1226 BROADWAY
1008470001.00000000,109 5 AVENUE,214700,1895,2015,2013,2015,13,272669.0,20974.54,BJW REALTY LLC,,40.7384885,-73.9912096,5,105,3,Council District 3,False,False,True,https://zola.planning.nyc.gov/l/lot/1/847/1,True,MTGE,2020-01-22T00:00:00.000,187588200,873.72,687.97,2020000037395,CR,109 5 AVENUE
1010150029.00000000,1493 BROADWAY,686603,1927,2016,2015,2016,32,871985.81,27249.56,PARAMOUNT LEASEHOLD L.P.,,40.7572210,-73.9867132,5,105,3,Council District 3,False,False,True,https://zola.planning.nyc.gov/l/lot/1/1015/29,True,MTGE,2019-12-12T00:00:00.000,70000000.00,101.95,80.28,2019000414407,OF,1493 BROADWAY
1010157501.00000000,229 WEST 43 STREET,589617,1932,2008,0,2008,16,748813.59,46800.85,229 WEST 43RD STREET CONDOMINIUM,,40.7575093,-73.9874965,5,105,3,Council District 3,False,False,True,https://zola.planning.nyc.gov/l/lot/1/1015/7501,False,,,,0.0,0.0,,,229 WEST 43 STREET
1010180006.00000000,235 WEST 46 STREET,215879,1928,2012,2010,2012,18,274166.33,15231.46,BECKER-PARAMOUNT FEE LLC,,40.7596391,-73.9870124,5,105,3,Council District 3,False,False,True,https://zola.planning.nyc.gov/l/lot/1/1018/6,True,MTGE,2018-04-04T00:00:00.000,40000000,185.29,145.9,2018000118444,CR,235 WEST 46 STREET
1010210019.00000000,1613 BROADWAY,158150,1931,0,0,0,11,200850.5,18259.14,1619 BROADWAY REALTY LLC,,40.7611347,-73.9846441,5,105,3,Council District 3,False,False,True,https://zola.planning.nyc.gov/l/lot/1/1021/19,True,MTGE,2015-06-09T00:00:00.000,76600000,484.35,381.38,2015000203564,OF,1613 BROADWAY
1006090007.00000000,154 WEST 14 STREET,140044,1913,0,0,0,12,177855.88,14821.32,ABNER PROPERTIES COMPANY,,40.7381622,-73.9995598,5,102,3,Council District 3,False,False,True,https://zola.planning.nyc.gov/l/lot/1/609/7,False,,,,0.0,0.0,,,154 WEST 14 STREET
1010130039.00000000,214 WEST 42 STREET,119905,1903,2008,0,2008,8,152279.35,19034.92,NEW AMSTERDAM DEVELOPMENT CORPORATION,C,40.7559201,-73.9880454,5,105,3,Council District 3,False,False,True,https://zola.planning.nyc.gov/l/lot/1/1013/39,True,MTGE,,4000000,33.36,26.27,,PA,214 WEST 42 STREET
1010950035.00000000,653 11 AVENUE,153363,1929,1989,2007,2007,16,194771.01,12173.19,CE INK 48 DE OWNER LLC,,40.7645666,-73.9959930,5,104,3,"Hell's Kitchen, Community Board 4, Council District 3",True,True,True,https://zola.planning.nyc.gov/l/lot/1/1095/35,True,DEED,2024-12-12T00:00:00.000,57789019,376.81,296.7,2024000330521,CR,653 11 AVENUE
1006010047.00000000,120 LEROY STREET,118422,1920,2012,2018,2018,9,150395.94,16710.66,"LF GREENWICH,",,40.7300676,-74.0079739,5,102,3,Council District 3,False,False,True,https://zola.planning.nyc.gov/l/lot/1/601/47,True,MTGE,2018-10-23T00:00:00.000,6713830.22,56.69,44.64,2018000358093,CR,120 LEROY STREET
1010250054.00000000,244 WEST 54 STREET,134441,1911,2018,0,2018,12,170740.07,14228.34,WEST 54TH STREET LLC,,40.7642334,-73.9835134,5,105,3,Council District 3,False,False,True,https://zola.planning.nyc.gov/l/lot/1/1025/54,True,MTGE,2022-03-09T00:00:00.000,28974856.49,215.52,169.7,2022000135680,CR,244 WEST 54 STREET
1010250025.00000000,1690 BROADWAY,596559,1968,0,0,0,41,757629.93,18478.78,1700 BROADWAY OWNER LLC,,40.7635113,-73.9822718,5,105,3,Council District 3,False,False,True,https://zola.planning.nyc.gov/l/lot/1/1025/25,True,DEED,2018-01-24T00:00:00.000,453050000,759.44,597.98,2018000031044,CR,1690 BROADWAY
1010220043.00000000,1631 BROADWAY,2438059,1972,1989,0,1989,48,3096334.93,64506.98,"1633 BROADWAY OWNER II, LP",,40.7621064,-73.9847016,5,105,3,Council District 3,False,False,True,https://zola.planning.nyc.gov/l/lot/1/1022/43,True,MTGE,2015-12-02T00:00:00.000,50000000,20.51,16.15,2015000440990,OF,1631 BROADWAY
1010240015.00000000,1675 BROADWAY,762619,1987,2018,0,2018,35,968526.13,27672.18,BROADWAY 52ND LP,,40.7631025,-73.9835462,5,105,3,Council District 3,False,False,True,https://zola.planning.nyc.gov/l/lot/1/1024/15,True,MTGE,2015-05-05T00:00:00.000,83674601.43,109.72,86.39,2015000157063,CR,1675 BROADWAY
1007940025.00000000,125 WEST 18 STREET,228000,1917,1987,0,1987,8,289560.0,36195.0,WASSERSTEIN ENTERPRISES,,40.7405528,-73.9957634,5,104,3,"Community Board 4, Council District 3",False,True,True,https://zola.planning.nyc.gov/l/lot/1/794/25,True,MTGE,2017-11-29T00:00:00.000,3000000,13.16,10.36,2017000455852,OF,125 WEST 18 STREET
1010660012.00000000,440 WEST 57 STREET,441347,1964,0,0,0,17,560510.69,32971.22,YS 440W57 OWNER LLC,P,40.7681753,-73.9874692,5,104,6,"Hell's Kitchen, Community Board 4",True,True,False,https://zola.planning.nyc.gov/l/lot/1/1066/12,True,DEED,2021-03-31T00:00:00.000,154912500.00,351.0,276.38,2021000127276,CR,440 WEST 57 STREET
1010650012.00000000,423 WEST 55 STREET,263438,1915,2004,0,2004,12,334566.26,27880.52,"423 WEST 55TH STREET,",,40.7674233,-73.9879639,5,104,6,"Hell's Kitchen, Community Board 4",True,True,False,https://zola.planning.nyc.gov/l/lot/1/1065/12,False,,,,0.0,0.0,,,423 WEST 55 STREET
1008560009.00000000,11 EAST 26 STREET,217991,1913,1979,0,1979,21,276848.57,13183.27,11 MSN L.L.C,,40.7434397,-73.9872284,5,105,3,Council District 3,False,False,True,https://zola.planning.nyc.gov/l/lot/1/856/9,True,DEED,2021-12-23T00:00:00.000,148208299.67,679.88,535.34,2022000008250,CR,11 EAST 26 STREET
1008510001.00000000,171 5 AVENUE,183449,1903,1990,0,1990,21,232980.23,11094.3,FLATIRON OWNER LLC,,40.7409916,-73.9896539,5,105,3,Council District 3,False,False,True,https://zola.planning.nyc.gov/l/lot/1/851/1,True,MTGE,2024-10-21T00:00:00.000,140000000,763.15,600.91,2024000284248,OF,171 5 AVENUE
1006920041.00000000,510 WEST 21 STREET,124385,1928,1988,0,1988,8,157968.95,19746.12,"SM I MMS, L.L.C.",,40.7465857,-74.0061064,6,104,3,"Community Board 4, Council District 3",False,True,True,https://zola.planning.nyc.gov/l/lot/1/692/41,True,MTGE,2021-12-16T00:00:00.000,1706011000.00,13715.57,10799.66,2022000008012,CR,510 WEST 21 STREET
1006920015.00000000,529 WEST 20 STREET,111329,1930,1988,1996,1996,11,141387.83,12853.44,EKA 529 WEST 20TH STREET LLC,,40.7466296,-74.0069004,5,104,3,"Community Board 4, Council District 3",False,True,True,https://zola.planning.nyc.gov/l/lot/1/692/15,True,MTGE,2025-05-29T00:00:00.000,195984.41,1.76,1.39,2025000156898,OF,529 WEST 20 STREET
1006870029.00000000,85 10 AVENUE,553472,1914,2015,2017,2017,11,702909.44,63900.86,"85 TENTH AVENUE ASSOCIATES, L.L.C.",,40.7433852,-74.0079827,5,104,3,"Community Board 4, Council District 3",False,True,True,https://zola.planning.nyc.gov/l/lot/1/687/29,True,MTGE,2016-12-01T00:00:00.000,126000000,227.65,179.25,2016000433952,CR,85 10 AVENUE
1006940047.00000000,524 WEST 23 STREET,141934,1931,1986,0,1986,10,180256.18,18025.62,"SM I MMS, L.L.C.",,40.7479910,-74.0056121,6,104,3,"Community Board 4, Council District 3",False,True,True,https://zola.planning.nyc.gov/l/lot/1/694/47,True,MTGE,2021-12-16T00:00:00.000,1706011000.00,12019.75,9464.37,2022000008012,CR,524 WEST 23 STREET
1006970047.00000000,518 WEST 26 STREET,218019,1910,1983,0,1983,10,276884.13,27688.41,WEST CHELSEA BUILDING LLC,,40.7499865,-74.0043057,5,104,3,"Community Board 4, Council District 3",False,True,True,https://zola.planning.nyc.gov/l/lot/1/697/47,True,MTGE,2010-03-24T00:00:00.000,348209.25,1.6,1.26,2010000111059,CR,518 WEST 26 STREET
1006960065.00000000,210 11 AVENUE,108081,1911,1989,2004,2004,11,137262.87,12478.44,"ONBAR,",,40.7498465,-74.0059046,5,104,3,"Community Board 4, Council District 3",False,True,True,https://zola.planning.nyc.gov/l/lot/1/696/65,True,MTGE,2018-09-14T00:00:00.000,1500000,13.88,10.93,2018000315188,OF,210 11 AVENUE
1008570076.00000000,243 5 AVENUE,258639,1927,2011,2011,2011,24,328471.53,13686.31,245 FIFTH OWNER LLC,,40.7443646,-73.9870767,5,105,3,Council District 3,False,False,True,https://zola.planning.nyc.gov/l/lot/1/857/76,True,MTGE,2016-02-12T00:00:00.000,10000000.01,38.66,30.44,2016000073930,OF,243 5 AVENUE
1008500001.00000000,149 5 AVENUE,173159,1918,1987,2013,2013,16,219911.93,13744.5,149 5 AVE CORP,,40.7402066,-73.9899897,5,105,3,Council District 3,False,False,True,https://zola.planning.nyc.gov/l/lot/1/850/1,True,MTGE,2003-01-24T00:00:00.000,7000000,40.43,31.83,2003000043472,OT,149 5 AVENUE
1007610053.00000000,330 WEST 38 STREET,180064,1928,1989,0,1989,16,228681.28,14292.58,HUDSON 38 HOLDINGS LLC,,40.7552563,-73.9934994,5,104,3,"Hell's Kitchen, Community Board 4, Council District 3",True,True,True,https://zola.planning.nyc.gov/l/lot/1/761/53,True,MTGE,2015-05-29T00:00:00.000,10127736.74,56.25,44.29,2015000235590,OF,330 WEST 38 STREET
1007590045.00000000,519 8 AVENUE,330291,1927,0,0,0,25,419469.57,16778.78,KAUFMAN 8TH AVENUE ASSOC,,40.7534118,-73.9930231,5,104,3,"Hell's Kitchen, Community Board 4, Council District 3",True,True,True,https://zola.planning.nyc.gov/l/lot/1/759/45,True,MTGE,2022-06-29T00:00:00.000,8962568.66,27.14,21.37,2022000284662,CR,519 8 AVENUE
1007610033.00000000,545 8 AVENUE,166874,1927,1986,0,1986,23,211929.98,9214.35,545 EIGHTH AVE ASSOC.,,40.7544987,-73.9921820,5,104,3,"Hell's Kitchen, Community Board 4, Council District 3",True,True,True,https://zola.planning.nyc.gov/l/lot/1/761/33,True,MTGE,2017-12-20T00:00:00.000,19067715.34,114.26,89.97,2018000015279,OF,545 8 AVENUE
1007600032.00000000,307 WEST 36 STREET,232458,1926,0,0,0,18,295221.66,16401.2,37TH ARCADE CO,,40.7540376,-73.9929076,5,104,3,"Hell's Kitchen, Community Board 4, Council District 3",True,True,True,https://zola.planning.nyc.gov/l/lot/1/760/32,True,MTGE,2012-05-31T00:00:00.000,3634096.15,15.63,12.31,2012000238194,AP,307 WEST 36 STREET
1007610037.00000000,555 8 AVENUE,162260,1927,1984,0,1984,23,206070.2,8959.57,SLOYER FORMAN INC,,40.7546798,-73.9921387,5,104,3,"Hell's Kitchen, Community Board 4, Council District 3",True,True,True,https://zola.planning.nyc.gov/l/lot/1/761/37,False,,,,0.0,0.0,,,555 8 AVENUE
1007580082.00000000,440 9 AVENUE,342596,1927,1999,0,1999,18,435096.92,24172.05,440 NINTH AVENUE OWNER LLC,,40.7536727,-73.9954919,5,104,3,"Hell's Kitchen, Community Board 4, Council District 3",True,True,True,https://zola.planning.nyc.gov/l/lot/1/758/82,True,MTGE,2018-12-06T00:00:00.000,54800000,159.96,125.95,2018000408789,CR,440 9 AVENUE
1007600063.00000000,336 WEST 37 STREET,122817,1928,0,0,0,14,155977.59,11141.26,IGS REALTY CO,,40.7546717,-73.9940373,5,104,3,"Hell's Kitchen, Community Board 4, Council District 3",True,True,True,https://zola.planning.nyc.gov/l/lot/1/760/63,True,MTGE,2020-12-23T00:00:00.000,12670000.00,103.16,81.23,2021000003753,CR,336 WEST 37 STREET
1007590029.00000000,319 WEST 35 STREET,117188,1900,1987,0,1987,25,148828.76,5953.15,H 317-319 LLC,,40.7534091,-73.9937161,5,104,3,"Hell's Kitchen, Community Board 4, Council District 3",True,True,True,https://zola.planning.nyc.gov/l/lot/1/759/29,True,MTGE,2023-04-26T00:00:00.000,20000000,170.67,134.38,2023000108944,AP,319 WEST 35 STREET
1006020068.00000000,435 HUDSON STREET,245330,1936,2017,2012,2017,9,311569.1,34618.79,NEW REMAINDERMAN 435 HUDSON LLC,,40.7306249,-74.0071765,5,102,3,Council District 3,False,False,True,https://zola.planning.nyc.gov/l/lot/1/602/68,True,DEED,2019-04-16T00:00:00.000,10.00,0.0,0.0,2019000155936,CR,435 HUDSON STREET
1006020036.00000000,611 WASHINGTON STREET,108764,1925,1985,0,1985,9,138130.28,15347.81,MORTON WEST LLC,,40.7309322,-74.0084863,5,102,3,Council District 3,False,False,True,https://zola.planning.nyc.gov/l/lot/1/602/36,True,MTGE,2015-07-29T00:00:00.000,3115016.29,28.64,22.55,2015000283369,OF,611 WASHINGTON STREET
1006030028.00000000,617 WASHINGTON STREET,154328,1911,2014,2017,2017,8,195996.56,24499.57,95 MORTON GORP PROPERTY LLC,,40.7314866,-74.0085585,5,102,3,Council District 3,False,False,True,https://zola.planning.nyc.gov/l/lot/1/603/28,True,MTGE,2022-06-28T00:00:00.000,60000000.00,388.78,306.13,2022000275864,CR,617 WASHINGTON STREET
1007100029.00000000,501 10 AVENUE,203400,1930,2006,2006,2006,7,258318.0,36902.57,500 LINCOLN OWNER LLC,,40.7576279,-73.9974950,6,104,3,"Hell's Kitchen, Community Board 4, Council District 3",True,True,True,https://zola.planning.nyc.gov/l/lot/1/710/29,True,MTGE,2010-12-10T00:00:00.000,93782886.18,461.08,363.05,2011000011686,CR,501 10 AVENUE
1010710023.00000000,515 WEST 42 STREET,122050,1962,1987,0,1987,7,155003.5,22143.36,R.BORN ASSOC.,,40.7602875,-73.9959535,5,104,3,"Hell's Kitchen, Community Board 4, Council District 3",True,True,True,https://zola.planning.nyc.gov/l/lot/1/1071/23,False,,,,0.0,0.0,,,515 WEST 42 STREET
1010910001.00000000,571 11 AVENUE,783307,1962,0,0,0,8,994799.89,124349.99,NUBEE CORP,,40.7623077,-73.9987979,6,104,3,"Hell's Kitchen, Community Board 4, Council District 3",True,True,True,https://zola.planning.nyc.gov/l/lot/1/1091/1,False,,,,0.0,0.0,,,571 11 AVENUE
1010920007.00000000,633 WEST 44 STREET,211175,1950,2015,0,2015,6,268192.25,44698.71,"SM I MMS, L.L.C.",,40.7631559,-73.9988918,6,104,3,"Hell's Kitchen, Community Board 4, Council District 3",True,True,True,https://zola.planning.nyc.gov/l/lot/1/1092/7,True,MTGE,2021-12-16T00:00:00.000,1706011000.00,8078.66,6361.15,2022000008012,CR,633 WEST 44 STREET
